school_code,AgeID,school_name,street,town_suburb,postcode,student_number,indigenous_pct,lbote_pct,ICSEA_Value,level_of_schooling,selective_school,opportunity_class,school_specialty_type,school_subtype,support_classes,preschool_ind,distance_education,intensive_english_centre,school_gender,phone,school_email,fax,late_opening_school,date_1st_teacher,lga,electorate,fed_electorate,operational_directorate,principal_network,facs_district,local_health_district,aecg_region,ASGS_remoteness,latitude,longitude,date_extracted
1001,4402,Abbotsford Public School,350 Great North Rd,Abbotsford ,2046,602,np,38,1127,Primary School,Not Selective,N,Comprehensive,Kinder to Year 6,,N,N,N,Coed,9713 6220,abbotsford-p.school@det.nsw.edu.au,9712 1825,N,1/4/25,Canada Bay (A),Drummoyne,Reid,Ultimo,Strathfield,"South Eastern Sydney, Northern Sydney & Sydney",Sydney,Metropolitan East,Major Cities of Australia,-33.852728,151.131206,7/3/17
1002,9333,Aberdeen Public School,Segenhoe St,Aberdeen,2336,241,10,4,917,Primary School,Not Selective,N,Comprehensive,Kinder to Year 6,,N,N,N,Coed,6543 7271,aberdeen-p.school@det.nsw.edu.au,6543 7712,N,1864-02-01,Upper Hunter Shire (A),Upper Hunter,New England,Tamworth & Coffs Harbour,Wollemi,Hunter New England & Central Coast,Hunter New England,Hunter,Inner Regional Australia,-32.166098,150.888095,7/3/17
1003,9299,Abermain Public School,Goulburn St,Abermain ,2326,264,22,np,887,Primary School,Not Selective,N,Comprehensive,Kinder to Year 6,,N,N,N,Coed,4930 4210,abermain-p.school@det.nsw.edu.au,4930 4319,N,1/8/05,Cessnock (C),Cessnock,Paterson,Tamworth & Coffs Harbour,Hunter,Hunter New England & Central Coast,Hunter New England,Hunter,Major Cities of Australia,-32.80892,151.426499,7/3/17
1007,10425,Adaminaby Public School,9 Cosgrove Street,Adaminaby,2629,17,0,0,973,Primary School,Not Selective,N,Comprehensive,Kinder to Year 6,,N,N,N,Coed,6454 2265,adaminaby-p.school@det.nsw.edu.au,6454 2552,N,1869-01-01,Snowy River (A),Monaro,Eden-Monaro,Dubbo & Wagga Wagga,Queanbeyan,Illawarra Shoalhaven & Southern NSW,Southern NSW,Lower South Coast,Outer Regional Australia,-35.993292,148.776721,7/3/17
1008,9043,Adamstown Public School,Bryant St,Adamstown ,2289,263,5,11,1024,Primary School,Not Selective,N,Comprehensive,Kinder to Year 6,,N,N,N,Coed,4957 1114,adamstown-p.school@det.nsw.edu.au,4956 2446,N,1877-07-01,Newcastle (C),Newcastle,Newcastle,Tamworth & Coffs Harbour,Newcastle,Hunter New England & Central Coast,Hunter New England,Hunter,Major Cities of Australia,-32.932213,151.730971,7/3/17
1009,10667,Adelong Public School,Gilmore St,Adelong ,2729,81,np,0,966,Primary School,Not Selective,N,Comprehensive,Kinder to Year 6,,N,N,N,Coed,6946 2053,adelong-p.school@det.nsw.edu.au,6946 2199,N,1860-03-01,Tumut Shire (A),Wagga Wagga,Eden-Monaro,Dubbo & Wagga Wagga,Cootamundra,"Murrumbidgee, Far West & Western NSW",Murrumbidgee,Riverina 1,Inner Regional Australia,-35.312333,148.062802,7/3/17
1015,10020,Albion Park Public School,Tongarra & Hamilton Rds,Albion Park ,2527,435,8,5,977,Primary School,Not Selective,N,Comprehensive,Kinder to Year 6,,N,N,N,Coed,4256 1244,albionpk-p.school@det.nsw.edu.au,4256 4160,N,1872-07-01,Shellharbour (C),Kiama,Whitlam,Dubbo & Wagga Wagga,Wollongong,Illawarra Shoalhaven & Southern NSW,Illawarra Shoalhaven,Upper South Coast,Major Cities of Australia,-34.570257,150.77262,7/3/17
1016,9357,Timbumburi Public School,542 Kia Ora Lane,Timbumburi ,2340,144,13,np,995,Primary School,Not Selective,N,Comprehensive,Kinder to Year 6,,N,N,N,Coed,6767 0232,timbumburi-p.school@det.nsw.edu.au,6767 0245,N,1/2/11,Tamworth Regional (A),Tamworth,New England,Tamworth & Coffs Harbour,Tamworth,Hunter New England & Central Coast,Hunter New England,North Western 2,Outer Regional Australia,-31.203781,150.915629,7/3/17
1017,10441,Albury Public School,481 David St,Albury ,2640,612,4,15,1055,Primary School,Not Selective,N,Comprehensive,Kinder to Year 6,,N,N,N,Coed,02 6021 3849,albury-p.school@det.nsw.edu.au,02 6041 1265,N,1850-07-01,Albury (C),Albury,Farrer,Dubbo & Wagga Wagga,Albury,"Murrumbidgee, Far West & Western NSW",Murrumbidgee,Riverina 1,Inner Regional Australia,-36.082454,146.919253,7/3/17
1019,10442,Albury West Public School,Mott St,Albury ,2640,118,30,np,866,Primary School,Not Selective,N,Comprehensive,Kinder to Year 6,,N,N,N,Coed,6021 2288,alburywest-p.school@det.nsw.edu.au,6041 3783,N,1/1/36,Albury (C),Albury,Farrer,Dubbo & Wagga Wagga,Albury,"Murrumbidgee, Far West & Western NSW",Murrumbidgee,Riverina 1,Inner Regional Australia,-36.07783,146.895548,7/3/17
1028,11109,Alma Public School,Comstock St,Broken Hill ,2880,236,31,np,844,Primary School,Not Selective,N,Comprehensive,Kinder to Year 6,,Y,N,N,Coed,08 8088 2181,alma-p.school@det.nsw.edu.au,08 8087 3691,Y,1889-01-01,Broken Hill (C),Barwon,Parkes,Dubbo & Wagga Wagga,Far West,"Murrumbidgee, Far West & Western NSW",Far West,Western 3,Outer Regional Australia,-31.982217,141.462443,7/3/17
1030,9761,Alstonville Public School,Main St,Alstonville ,2477,540,6,6,1018,Primary School,Not Selective,Y,Comprehensive,Kinder to Year 6,,N,N,N,Coed,6628 0775,alstonvill-p.school@det.nsw.edu.au,6628 5362,N,1875-01-01,Ballina (A),Ballina,Page,Tamworth & Coffs Harbour,Richmond Valley,Mid North Coast & Northern NSW,Northern NSW,Upper North Coast,Inner Regional Australia,-28.838471,153.438172,7/3/17
1040,9126,Anna Bay Public School,191 Gan Gan Rd,Anna Bay ,2316,297,8,7,970,Primary School,Not Selective,N,Comprehensive,Kinder to Year 6,,N,N,N,Coed,4982 1187,annabay-p.school@det.nsw.edu.au,4982 1879,N,1879-11-01,Port Stephens (A),Port Stephens,Paterson,Tamworth & Coffs Harbour,Callaghan/Port Stephens,Hunter New England & Central Coast,Hunter New England,Hunter,Inner Regional Australia,-32.77637,152.089912,7/3/17
1041,5497,Annandale Public School,25 Johnston St,Annandale ,2038,372,5,30,1150,Primary School,Not Selective,N,Comprehensive,Kinder to Year 6,,Y,N,N,Coed,9516 3711,annandale-p.school@det.nsw.edu.au,9550 4581,N,1886-08-01,Leichhardt (A),Balmain,Grayndler,Ultimo,Port Jackson,"South Eastern Sydney, Northern Sydney & Sydney",Sydney,Metropolitan East,Major Cities of Australia,-33.885782,151.169599,7/3/17
1042,4930,Annandale North Public School,206 Johnston St,Annandale ,2038,398,np,16,1174,Primary School,Not Selective,N,Comprehensive,Kinder to Year 6,,N,N,N,Coed,9660 3972,annandalen-p.school@det.nsw.edu.au,9692 8323,N,1/5/07,Leichhardt (A),Balmain,Grayndler,Ultimo,Port Jackson,"South Eastern Sydney, Northern Sydney & Sydney",Sydney,Metropolitan East,Major Cities of Australia,-33.877905,151.171835,7/3/17
1045,10197,Appin Public School,97 Appin Road,Appin,2560,271,8,6,991,Primary School,Not Selective,N,Comprehensive,Kinder to Year 6,,N,N,N,Coed,4631 1220,appin-p.school@det.nsw.edu.au,4631 1486,N,1868-01-01,Wollondilly (A),Wollondilly,Hume,Ultimo,Wollondilly,South Western Sydney,South Western Sydney,Dharawal,Inner Regional Australia,-34.198417,150.78766,7/3/17
1048,17392,Arcadia Public School,140 Arcadia Road,Arcadia,2159,72,0,19,1064,Primary School,Not Selective,N,Comprehensive,Kinder to Year 6,,N,N,N,Coed,9653 1207,arcadia-p.school@det.nsw.edu.au,9653 2697,N,1894-05-01,Hornsby (A),Hornsby,Berowra,Macquarie Park,Dural,"South Eastern Sydney, Northern Sydney & Sydney",Northern Sydney,Metropolitan North,Inner Regional Australia,-33.623487,151.051031,7/3/17
1051,10519,Ardlethan Central School,Mithul St,Ardlethan ,2665,83,np,np,966,Central/Community School,Not Selective,N,Comprehensive,Kinder to Year 12,,N,N,N,Coed,6978 2046,ardlethan-c.school@det.nsw.edu.au,6978 2202,N,1/1/10,Coolamon (A),Cootamundra,Riverina,Dubbo & Wagga Wagga,Griffith,"Murrumbidgee, Far West & Western NSW",Murrumbidgee,Riverina 1 ,Outer Regional Australia,-34.354098,146.900557,7/3/17
1055,10520,Ariah Park Central School,Reid St,Ariah Park ,2665,125.2,np,0,983,Central/Community School,Not Selective,N,Comprehensive,Kinder to Year 12,,N,N,N,Coed,6974 1105,ariahpark-c.school@det.nsw.edu.au,6974 1017,N,1899-04-01,Temora (A),Cootamundra,Riverina,Dubbo & Wagga Wagga,Cootamundra,"Murrumbidgee, Far West & Western NSW",Murrumbidgee,Riverina 1,Outer Regional Australia,-34.346925,147.218018,7/3/17
1057,9372,Armidale City Public School,Faulkner St,Armidale ,2350,446,11,17,1023,Primary School,Not Selective,N,Comprehensive,Kinder to Year 6,,N,N,N,Coed,6772 3420,armidalec-p.school@det.nsw.edu.au,6771 2262,N,1861-06-01,Armidale Dumaresq (A),Northern Tablelands,New England,Tamworth & Coffs Harbour,Northern Tablelands,Hunter New England & Central Coast,Hunter New England,North Western 2,Inner Regional Australia,-30.519501,151.664056,7/3/17
1058,9376,Drummond Memorial Public School,250 Rusden Street,Armidale,2350,122,45,20,825,Primary School,Not Selective,N,Comprehensive,Kinder to Year 6,,N,N,N,Coed,6772 3736,drummondm-p.school@det.nsw.edu.au,6771 2275,N,1890-10-01,Armidale Dumaresq (A),Northern Tablelands,New England,Tamworth & Coffs Harbour,Northern Tablelands,Hunter New England & Central Coast,Hunter New England,North Western 2,Inner Regional Australia,-30.511469,151.650715,7/3/17
1061,7612,Artarmon Public School,McMillan Rd,Artarmon ,2064,1125,np,75,1186,Primary School,Not Selective,Y,Comprehensive,Kinder to Year 6,,N,N,N,Coed,9411 1950,artarmon-p.school@det.nsw.edu.au,9415 1243,N,1/10/10,Willoughby (C),Lane Cove,North Sydney,Macquarie Park,North Sydney,"South Eastern Sydney, Northern Sydney & Sydney",Northern Sydney,Metropolitan North,Major Cities of Australia,-33.811249,151.186001,7/3/17
1064,7773,Ashbury Public School,Trevenar St,Ashbury,2193,381,2,45,1107,Primary School,Not Selective,N,Comprehensive,Kinder to Year 6,,N,N,N,Coed,9798 4509,ashbury-p.school@det.nsw.edu.au,9716 8089,N,1/5/24,Canterbury (C),Summer Hill,Watson,Ultimo,Canterbury,"South Eastern Sydney, Northern Sydney & Sydney",Sydney,Metropolitan East,Major Cities of Australia,-33.898833,151.11944,7/3/17
1065,7774,Ashfield Public School,Liverpool Rd,Ashfield ,2131,370,np,75,1066,Primary School,Not Selective,Y,Comprehensive,Kinder to Year 6,,N,N,N,Coed,9798 4400,ashfield-p.school@det.nsw.edu.au,9716 7250,N,1862-01-01,Ashfield (A),Summer Hill,Grayndler,Ultimo,Marrickville,"South Eastern Sydney, Northern Sydney & Sydney",Sydney,Metropolitan East,Major Cities of Australia,-33.889723,151.12821,7/3/17
1066,9412,Ashford Central School,Albury St,Ashford ,2361,167.8,23,np,854,Central/Community School,Not Selective,N,Comprehensive,Kinder to Year 12,,N,N,N,Coed,6725 4101,ashford-c.school@det.nsw.edu.au,6725 4336,Y,1868-01-01,Inverell (A),Northern Tablelands,New England,Tamworth & Coffs Harbour,Barwon,Hunter New England & Central Coast,Hunter New England,North Western 2,Outer Regional Australia,-29.321262,151.094638,7/3/17
1070,5797,Asquith Public School,Dudley St,Asquith,2077,374,2,33,1090,Primary School,Not Selective,N,Comprehensive,Kinder to Year 6,,N,N,N,Coed,9477 1258,asquith-p.school@det.nsw.edu.au,9482 2523,N,1/3/30,Hornsby (A),Hornsby,Bradfield,Macquarie Park,Hornsby,"South Eastern Sydney, Northern Sydney & Sydney",Northern Sydney,Metropolitan North,Major Cities of Australia,-33.685729,151.112177,7/3/17
1071,9369,Attunga Public School,Railway St,Attunga ,2345,37,np,0,944,Primary School,Not Selective,N,Comprehensive,Kinder to Year 6,,N,N,N,Coed,6769 5554,attunga-p.school@det.nsw.edu.au,6769 5690,N,1878-04-01,Tamworth Regional (A),Tamworth,New England,Tamworth & Coffs Harbour,Tamworth,Hunter New England & Central Coast,Hunter New England,North Western 2,Outer Regional Australia,-30.930445,150.846575,7/3/17
1073,7799,Auburn North Public School,100 Adderley St,Auburn ,2144,665,np,98,966,Primary School,Not Selective,N,Comprehensive,Kinder to Year 6,,N,N,N,Coed,9748 1036,auburnnth-p.school@det.nsw.edu.au,9748 0109,N,1891-01-01,Auburn (C),Auburn,Blaxland,Macquarie Park,Holroyd,Western Sydney & Nepean Blue Mountains,Western Sydney,Metropolitan South West,Major Cities of Australia,-33.841669,151.038618,7/3/17
1075,7801,Auburn West Public School,Chiswick Rd,Auburn ,2144,721,np,98,906,Primary School,Not Selective,N,Comprehensive,Kinder to Year 6,,N,N,N,Coed,9649 6774,auburnwest-p.school@det.nsw.edu.au,9749 1467,N,1/8/34,Auburn (C),Auburn,Blaxland,Macquarie Park,Holroyd,Western Sydney & Nepean Blue Mountains,Western Sydney,Metropolitan South West,Major Cities of Australia,-33.860931,151.019764,7/3/17
1076,9986,Austinmer Public School,90 Lawrence Hargrave Drive,Austinmer ,2515,345,2,11,1105,Primary School,Not Selective,N,Comprehensive,Kinder to Year 6,,N,N,N,Coed,4267 1311,austinmer-p.school@det.nsw.edu.au,4267 1018,N,1866-01-01,Wollongong (C),Keira,Cunningham,Dubbo & Wagga Wagga,Wollongong North,Illawarra Shoalhaven & Southern NSW,Illawarra Shoalhaven,Upper South Coast,Major Cities of Australia,-34.305398,150.934991,7/3/17
1077,8545,Austral Public School,219 Edmondson Avenue,Austral,2179,281,4,50,953,Primary School,Not Selective,N,Comprehensive,Kinder to Year 6,,N,N,N,Coed,9606 0312,austral-p.school@det.nsw.edu.au,9606 0080,N,1893-06-01,Liverpool (C),Camden,Werriwa,Ultimo,Macarthur,South Western Sydney,South Western Sydney,Metropolitan South West,Major Cities of Australia,-33.934487,150.812638,7/3/17
1081,10243,Avoca Public School,Sheepwash Rd,Avoca,2577,21,np,0,998,Primary School,Not Selective,N,Comprehensive,Kinder to Year 6,,N,N,N,Coed,4887 7224,avoca-p.school@det.nsw.edu.au,4887 7380,N,1872-09-01,Wingecarribee (A),Goulburn,Whitlam,Ultimo,Wollondilly,South Western Sydney,South Western Sydney,Upper South Coast,Inner Regional Australia,-34.612697,150.479766,7/3/17
1082,16159,Avoca Beach Public School,The Round Drive,Avoca Beach,2251,511,4,6,1094,Primary School,Not Selective,N,Comprehensive,Kinder to Year 6,,N,N,N,Coed,4382 1416,avocabch-p.school@det.nsw.edu.au,4381 1431,N,1/5/35,Gosford (C),Terrigal,Robertson,Macquarie Park,Gosford,Hunter New England & Central Coast,Central Coast,Central Coast,Major Cities of Australia,-33.471154,151.430745,7/3/17
1084,8964,Awaba Public School,Mulbring Street,Awaba,2283,36,np,np,969,Primary School,Not Selective,N,Comprehensive,Kinder to Year 6,,N,N,N,Coed,4959 2502,awaba-p.school@det.nsw.edu.au,4950 4905,N,1891-06-01,Lake Macquarie (C),Lake Macquarie,Hunter,Tamworth & Coffs Harbour,Lake Macquarie West,Hunter New England & Central Coast,Hunter New England,Hunter ,Major Cities of Australia,-33.010554,151.538068,7/3/17
1085,16197,Colo Vale Public School,Wattle St,Colo Vale ,2575,230,3,6,992,Primary School,Not Selective,N,Comprehensive,Kinder to Year 6,,N,N,N,Coed,4889 4250,colovale-p.school@det.nsw.edu.au,4889 4285,N,1882-01-01,Wingecarribee (A),Wollondilly,Hume,Ultimo,Wollondilly,South Western Sydney,South Western Sydney,Upper South Coast,Inner Regional Australia,-34.401281,150.476178,7/3/17
1098,9413,Bald Blair Public School,Ebor Rd,Guyra ,2365,36,np,np,972,Primary School,Not Selective,N,Comprehensive,Kinder to Year 6,,N,N,N,Coed,6779 1578,baldblair-p.school@det.nsw.edu.au,6779 2060,N,1/5/20,Guyra (A),Northern Tablelands,New England,Tamworth & Coffs Harbour,Northern Tablelands,Hunter New England & Central Coast,Hunter New England,North Western 2,Outer Regional Australia,-30.229893,151.785056,7/3/17
1104,7691,Seaforth Public School,37 Kempbridge Avenue,Seaforth ,2092,566,np,18,1152,Primary School,Not Selective,N,Comprehensive,Kinder to Year 6,,N,N,N,Coed,9948 1694,seaforth-p.school@det.nsw.edu.au,9907 0858,N,1881-07-01,Manly (A),Manly,Warringah,Macquarie Park,Warringah,"South Eastern Sydney, Northern Sydney & Sydney",Northern Sydney,Metropolitan North,Major Cities of Australia,-33.793262,151.251235,7/3/17
1106,10002,Balgownie Public School,Balgownie Rd,Balgownie ,2519,349,np,22,1077,Primary School,Not Selective,N,Comprehensive,Kinder to Year 6,,N,N,N,Coed,4284 4245,balgownie-p.school@det.nsw.edu.au,4284 3462,N,1889-04-01,Wollongong (C),Keira,Cunningham,Dubbo & Wagga Wagga,Wollongong North,Illawarra Shoalhaven & Southern NSW,Illawarra Shoalhaven,Upper South Coast,Major Cities of Australia,-34.386984,150.872076,7/3/17
1111,11039,Ballimore Public School,Bomen St,Ballimore ,2830,14,np,0,943,Primary School,Not Selective,N,Comprehensive,Kinder to Year 6,,N,N,N,Coed,6886 5151,ballimore-p.school@det.nsw.edu.au,6886 5167,N,1884-07-01,Dubbo (C),Dubbo,Parkes,Dubbo & Wagga Wagga,Macquarie,"Murrumbidgee, Far West & Western NSW",Western NSW,Western 1,Outer Regional Australia,-32.193596,148.899631,7/3/17
1112,9765,Ballina Public School,48 Crane St,Ballina ,2478,246,34,6,836,Primary School,Not Selective,N,Comprehensive,Kinder to Year 6,,N,N,N,Coed,6686 2205,ballina-p.school@det.nsw.edu.au,6686 0692,N,1861-08-01,Ballina (A),Ballina,Richmond,Tamworth & Coffs Harbour,Richmond Valley,Mid North Coast & Northern NSW,Northern NSW,Upper North Coast,Inner Regional Australia,-28.869724,153.563707,7/3/17
1115,6377,Balranald Central School,We St,Balranald,2715,151.6,27,4,899,Central/Community School,Not Selective,N,Comprehensive,Kinder to Year 12,,N,N,N,Coed,03 5020 2222,balranald-c.school@det.nsw.edu.au,03 5020 2269,Y,1865-09-01,Balranald (A),Murray,Farrer,Dubbo & Wagga Wagga,Deniliquin,"Murrumbidgee, Far West & Western NSW",Far West,Riverina 3,Outer Regional Australia,-34.635575,143.564769,7/3/17
1118,9770,Bangalow Public School,Byron St,Bangalow ,2479,291,2,7,1102,Primary School,Not Selective,N,Comprehensive,Kinder to Year 6,,N,N,N,Coed,6687 1434,bangalow-p.school@det.nsw.edu.au,6687 2036,N,1884-10-01,Byron (A),Ballina,Richmond,Tamworth & Coffs Harbour,Lismore,Mid North Coast & Northern NSW,Northern NSW,Upper North Coast,Inner Regional Australia,-28.68554,153.525743,7/3/17
1121,6390,Banksmeadow Public School,Trevelyan & Wiggins Sts,Botany ,2019,254,6,22,1039,Primary School,Not Selective,N,Comprehensive,Kinder to Year 6,,Y,N,N,Coed,9316 9608,banksmeado-p.school@det.nsw.edu.au,9316 4513,N,1881-08-01,Botany Bay (C),Maroubra,Kingsford Smith,Ultimo,Botany Bay,"South Eastern Sydney, Northern Sydney & Sydney",South Eastern Sydney,Metropolitan East,Major Cities of Australia,-33.953739,151.20661,7/3/17
1123,8557,Greenacre Public School,Waterloo Rd,Greenacre,2190,797,1,98,932,Primary School,Not Selective,Y,Comprehensive,Kinder to Year 6,,N,N,N,Coed,9759 1305,greenacre-p.school@det.nsw.edu.au,9740 4035,N,1/5/21,Bankstown (C),Lakemba,Watson,Ultimo,Canterbury,South Western Sydney,South Western Sydney,Metropolitan South West,Major Cities of Australia,-33.911161,151.057581,7/3/17
1124,8574,Bankstown North Public School,322 Hume Hwy,Bankstown ,2200,377,np,93,979,Primary School,Not Selective,N,Comprehensive,Kinder to Year 6,,N,N,N,Coed,9709 5506,bankstownn-p.school@det.nsw.edu.au,9790 0945,N,1868-01-01,Bankstown (C),Bankstown,Blaxland,Ultimo,Bankstown,South Western Sydney,South Western Sydney,Metropolitan South West,Major Cities of Australia,-33.904888,151.038043,7/3/17
1129,9515,Banora Point Public School,Pioneer Pde,Banora Point ,2486,621,10,6,995,Primary School,Not Selective,N,Comprehensive,Kinder to Year 6,,N,N,N,Coed,07 5524 1444,banorapt-p.school@det.nsw.edu.au,07 5524 9287,N,1893-07-01,Tweed (A),Tweed,Richmond,Tamworth & Coffs Harbour,Tweed,Mid North Coast & Northern NSW,Northern NSW,Upper North Coast,Major Cities of Australia,-28.222422,153.543702,7/3/17
1130,6402,Baradine Central School,Narren St,Baradine,2396,109,50,0,787,Central/Community School,Not Selective,N,Comprehensive,Kinder to Year 12,,N,N,N,Coed,6843 1805,baradine-c.school@det.nsw.edu.au,6843 1751,Y,1876-01-01,Warrumbungle Shire (A),Barwon,Parkes,Dubbo & Wagga Wagga,Western Plains,"Murrumbidgee, Far West & Western NSW",Western NSW,North Western 1,Remote Australia,-30.950736,149.070198,7/3/17
1131,10521,Barellan Central School,Boree St,Barellan ,2665,119,11,7,967,Central/Community School,Not Selective,N,Comprehensive,Kinder to Year 12,,N,N,N,Coed,6963 9202,barellan-c.school@det.nsw.edu.au,6963 9302,N,1/8/11,Narrandera (A),Cootamundra,Farrer,Dubbo & Wagga Wagga,Griffith,"Murrumbidgee, Far West & Western NSW",Murrumbidgee,Riverina 1 ,Outer Regional Australia,-34.287799,146.571928,7/3/17
1134,10234,Bargo Public School,Southern Rd,Bargo ,2574,359,7,10,979,Primary School,Not Selective,N,Comprehensive,Kinder to Year 6,,N,N,N,Coed,4684 1396,bargo-p.school@det.nsw.edu.au,02 4684 3781,N,1869-05-01,Wollondilly (A),Wollondilly,Hume,Ultimo,Wollondilly,South Western Sydney,South Western Sydney,Dharawal,Inner Regional Australia,-34.292889,150.58274,7/3/17
1135,10672,Barham Public School,Wakool St,Barham,2732,147,np,6,992,Primary School,Not Selective,N,Comprehensive,Kinder to Year 6,,N,N,N,Coed,03 5453 2133,barham-p.school@det.nsw.edu.au,03 5453 2972,Y,1/10/01,Wakool (A),Murray,Farrer,Dubbo & Wagga Wagga,Deniliquin,"Murrumbidgee, Far West & Western NSW",Murrumbidgee,Riverina 2 ,Outer Regional Australia,-35.626915,144.127977,7/3/17
1136,9751,Barkers Vale Public School,4501 Kyogle Rd,Wadeville ,2474,51,np,27,978,Primary School,Not Selective,N,Comprehensive,Kinder to Year 6,,N,N,N,Coed,6689 7202,barkersval-p.school@det.nsw.edu.au,6689 7469,N,1/5/33,Kyogle (A),Lismore,Page,Tamworth & Coffs Harbour,Richmond Valley,Mid North Coast & Northern NSW,Northern NSW,Upper North Coast,Inner Regional Australia,-28.54902,153.14927,7/3/17
1137,10527,Barmedman Public School,Robertson St,Barmedman ,2668,15,np,np,866,Primary School,Not Selective,N,Comprehensive,Kinder to Year 6,,N,N,N,Coed,6976 2128,barmedman-p.school@det.nsw.edu.au,6976 2006,N,1883-04-01,Bland (A),Cootamundra,Riverina,Dubbo & Wagga Wagga,Cootamundra,"Murrumbidgee, Far West & Western NSW",Murrumbidgee,Riverina 1 ,Outer Regional Australia,-34.148277,147.385078,7/3/17
1138,9127,Barnsley Public School,Cliffbrook St,Barnsley ,2278,283,11,3,951,Primary School,Not Selective,N,Comprehensive,Kinder to Year 6,,N,N,N,Coed,4953 2976,barnsley-p.school@det.nsw.edu.au,4953 3094,N,1865-12-01,Lake Macquarie (C),Cessnock,Hunter,Tamworth & Coffs Harbour,Lake Macquarie West,Hunter New England & Central Coast,Hunter New England,Hunter,Major Cities of Australia,-32.933094,151.594552,7/3/17
1139,10460,Barooga Public School,Hughes St,Barooga ,3644,151,5,7,963,Primary School,Not Selective,N,Comprehensive,Kinder to Year 6,,N,N,N,Coed,03 5873 4242,barooga-p.school@det.nsw.edu.au,03 5873 4700,N,1896-01-01,Berrigan (A),Murray,Farrer,Dubbo & Wagga Wagga,Deniliquin,"Murrumbidgee, Far West & Western NSW",Murrumbidgee,Riverina 2 ,Inner Regional Australia,-35.912963,145.695985,7/3/17
1140,9371,Barraba Central School,Gotha St,Barraba ,2347,188.8,17,np,899,Central/Community School,Not Selective,N,Comprehensive,Kinder to Year 12,,N,N,N,Coed,6782 1104,barraba-c.school@det.nsw.edu.au,6782 1231,N,1861-10-01,Tamworth Regional (A),Tamworth,New England,Tamworth & Coffs Harbour,Tamworth,Hunter New England & Central Coast,Hunter New England,North Western 2,Outer Regional Australia,-30.38239,150.599478,7/3/17
1143,9523,Barrington Public School,1 Kenmore St,Barrington ,2422,58,12,np,1002,Primary School,Not Selective,N,Comprehensive,Kinder to Year 6,,N,N,N,Coed,6558 4258,barrington-p.school@det.nsw.edu.au,6558 4216,N,1864-05-01,Gloucester (A),Upper Hunter,Lyne,Tamworth & Coffs Harbour,Great Lakes,Hunter New England & Central Coast,Hunter New England,Manning,Outer Regional Australia,-31.971159,151.911058,7/3/17
1146,9683,Baryulgil Public School,7135 Clarence Way,Baryulgil ,2460,9,78,np,,Primary School,Not Selective,N,Comprehensive,Kinder to Year 6,,N,N,N,Coed,6647 2124,baryulgil-p.school@det.nsw.edu.au,6647 2151,N,1/11/17,Clarence Valley (A),Clarence,Page,Tamworth & Coffs Harbour,Clarence Valley,Mid North Coast & Northern NSW,Northern NSW,Upper North Coast,Outer Regional Australia,-29.2235,152.605615,7/3/17
1148,8571,Bass Hill Public School,611 Hume Hwy,Bass Hill ,2197,354,3,82,944,Primary School,Not Selective,N,Comprehensive,Kinder to Year 6,,Y,N,N,Coed,9644 3431,basshill-p.school@det.nsw.edu.au,9644 5271,N,1/3/23,Bankstown (C),Bankstown,Blaxland,Ultimo,Bankstown,South Western Sydney,South Western Sydney,Metropolitan South West,Major Cities of Australia,-33.905902,151.005779,7/3/17
1149,10056,Batemans Bay Public School,Mundarra Way,Surfside,2536,569,29,5,897,Primary School,Not Selective,N,Comprehensive,Kinder to Year 6,,Y,N,N,Coed,4472 4059,batemansba-p.school@det.nsw.edu.au,4472 8457,N,1869-07-01,Eurobodalla (A),Bega,Gilmore,Dubbo & Wagga Wagga,Far South Coast,Illawarra Shoalhaven & Southern NSW,Southern NSW,Lower South Coast,Inner Regional Australia,-35.700051,150.188373,7/3/17
1150,10975,Bathurst Public School,George St,Bathurst ,2795,577,11,12,982,Primary School,Not Selective,N,Comprehensive,Kinder to Year 6,,N,N,N,Coed,6331 3923,bathurst-p.school@det.nsw.edu.au,6332 2305,N,1853-02-01,Bathurst Regional (A),Bathurst,Calare,Dubbo & Wagga Wagga,Bathurst,"Murrumbidgee, Far West & Western NSW",Western NSW,Western 1,Inner Regional Australia,-33.420942,149.570615,7/3/17
1152,6415,Batlow Technology School,Pioneer St,Batlow ,2730,109,7,5,929,Central/Community School,Not Selective,N,Comprehensive,Kinder to Year 12,,N,N,N,Coed,6949 1208,batlow-c.school@det.nsw.edu.au,6949 1666,N,1868-01-01,Tumut Shire (A),Wagga Wagga,Eden-Monaro,Dubbo & Wagga Wagga,Albury,"Murrumbidgee, Far West & Western NSW",Murrumbidgee,Riverina 1,Outer Regional Australia,-35.523007,148.146548,7/3/17
1160,10522,Beckom Public School,Welman St,Beckom ,2665,11,0,0,947,Primary School,Not Selective,N,Comprehensive,Kinder to Year 6,,N,N,N,Coed,6978 2314,beckom-p.school@det.nsw.edu.au,6978 2342,N,1/4/11,Coolamon (A),Cootamundra,Riverina,Dubbo & Wagga Wagga,Griffith,"Murrumbidgee, Far West & Western NSW",Murrumbidgee,Riverina 1 ,Outer Regional Australia,-34.327211,146.962928,7/3/17
1164,11098,Bedgerebong Public School,North Condobolin Rd,Bedgerebong ,2871,55,11,np,903,Primary School,Not Selective,N,Comprehensive,Kinder to Year 6,,N,N,N,Coed,6857 1185,bedgerebon-p.school@det.nsw.edu.au,6857 1118,N,1876-01-01,Forbes (A),Orange,Riverina,Dubbo & Wagga Wagga,Lachlan,"Murrumbidgee, Far West & Western NSW",Western NSW,Western 1,Outer Regional Australia,-33.361353,147.679318,7/3/17
1165,9643,Beechwood Public School,614 Beechwood Road,Wauchope ,2446,128,11,5,972,Primary School,Not Selective,N,Comprehensive,Kinder to Year 6,,N,N,N,Coed,6585 6136,beechwood-p.school@det.nsw.edu.au,6585 6000,N,1869-08-01,Port Macquarie-Hastings (A),Oxley,Lyne,Tamworth & Coffs Harbour,Hastings,Mid North Coast & Northern NSW,Mid North Coast,Lower North Coast,Inner Regional Australia,-31.435535,152.68094,7/3/17
1166,7758,Beecroft Public School,98 Beecroft Rd,Beecroft ,2119,817,np,54,1199,Primary School,Not Selective,Y,Comprehensive,Kinder to Year 6,,N,N,N,Coed,9484 8844,beecroft-p.school@det.nsw.edu.au,9484 8200,N,1897-04-01,Hornsby (A),Epping,Berowra,Macquarie Park,Dural,"South Eastern Sydney, Northern Sydney & Sydney",Northern Sydney,Metropolitan North,Major Cities of Australia,-33.752085,151.06462,7/3/17
1167,10539,Beelbangera Public School,Rankins Springs Rd,Beelbangera ,2680,179,4,20,1010,Primary School,Not Selective,N,Comprehensive,Kinder to Year 6,,N,N,N,Coed,6963 5368,beelbanger-p.school@det.nsw.edu.au,6963 5506,N,1/5/22,Griffith (C),Murray,Farrer,Dubbo & Wagga Wagga,Griffith,"Murrumbidgee, Far West & Western NSW",Murrumbidgee,Riverina 1 ,Outer Regional Australia,-34.252836,146.101067,7/3/17
1168,10183,Bega Valley Public School,27 Auckland St,Bega ,2550,347,16,2,907,Primary School,Not Selective,N,Comprehensive,Kinder to Year 6,,N,N,N,Coed,6492 1280,bega-p.school@det.nsw.edu.au,6492 3965,N,1860-01-01,Bega Valley (A),Bega,Eden-Monaro,Dubbo & Wagga Wagga,Far South Coast,Illawarra Shoalhaven & Southern NSW,Southern NSW,Lower South Coast,Outer Regional Australia,-36.670545,149.839095,7/3/17
1175,9496,Bellata Public School,Gurley St,Bellata ,2397,29,np,0,914,Primary School,Not Selective,N,Comprehensive,Kinder to Year 6,,N,N,N,Coed,6793 7514,bellata-p.school@det.nsw.edu.au,6793 7462,Y,1899-03-01,Narrabri (A),Barwon,Parkes,Tamworth & Coffs Harbour,Barwon,Hunter New England & Central Coast,Hunter New England,North Western 1,Outer Regional Australia,-29.918659,149.796216,7/3/17
1177,9208,Bellbird Public School,Doyle St,Bellbird ,2325,265,9,np,944,Primary School,Not Selective,N,Comprehensive,Kinder to Year 6,,N,N,N,Coed,4990 2331,bellbird-p.school@det.nsw.edu.au,4991 1973,N,1/10/13,Cessnock (C),Cessnock,Hunter,Tamworth & Coffs Harbour,Hunter,Hunter New England & Central Coast,Hunter New England,Hunter,Inner Regional Australia,-32.859421,151.316705,7/3/17
1178,9608,Bellbrook Public School,Main St,Bellbrook,2440,31,52,np,838,Primary School,Not Selective,N,Comprehensive,Kinder to Year 6,,N,N,N,Coed,6567 2049,bellbrook-p.school@det.nsw.edu.au,6567 2113,N,1883-02-01,Kempsey (A),Oxley,Cowper,Tamworth & Coffs Harbour,Mid North Coast,Mid North Coast & Northern NSW,Mid North Coast,Lower North Coast,Outer Regional Australia,-30.819094,152.508698,7/3/17
1179,5338,Bellevue Hill Public School,Victoria Rd,Bellevue Hill ,2023,611,np,61,1153,Primary School,Not Selective,N,Comprehensive,Kinder to Year 6,,N,N,N,Coed,9389 3928,bellevuehi-p.school@det.nsw.edu.au,9369 4651,N,1/5/25,Woollahra (A),Vaucluse,Wentworth,Ultimo,Port Jackson,"South Eastern Sydney, Northern Sydney & Sydney",South Eastern Sydney,Metropolitan East,Major Cities of Australia,-33.886986,151.259785,7/3/17
1181,9676,Bellingen Public School,William St,Bellingen ,2454,395,9,3,1006,Primary School,Not Selective,N,Comprehensive,Kinder to Year 6,,N,N,N,Coed,6655 1147,bellingen-p.school@det.nsw.edu.au,6655 2615,N,1870-09-01,Bellingen (A),Oxley,Cowper,Tamworth & Coffs Harbour,Mid North Coast,Mid North Coast & Northern NSW,Mid North Coast,Lower North Coast,Outer Regional Australia,-30.45349,152.891887,7/3/17
1182,9335,Belltrees Public School,Moonan Flat Rd,Belltrees ,2337,11,0,0,977,Primary School,Not Selective,N,Comprehensive,Kinder to Year 6,,N,N,N,Coed,6546 1148,belltrees-p.school@det.nsw.edu.au,6546 1110,N,1876-05-01,Upper Hunter Shire (A),Upper Hunter,New England,Tamworth & Coffs Harbour,Wollemi,Hunter New England & Central Coast,Hunter New England,Hunter,Outer Regional Australia,-31.988753,151.129487,7/3/17
1183,17401,Belmont Public School,Livingstone St,Belmont ,2280,268,15,7,940,Primary School,Not Selective,N,Comprehensive,Kinder to Year 6,,N,N,N,Coed,4945 4858,belmont-p.school@det.nsw.edu.au,4947 7823,N,1874-02-01,Lake Macquarie (C),Swansea,Shortland,Tamworth & Coffs Harbour,Lake Macquarie East,Hunter New England & Central Coast,Hunter New England,Hunter,Major Cities of Australia,-33.030134,151.662203,7/3/17
1185,8559,Belmore North Public School,Burwood Rd,Belmore ,2192,340,np,88,964,Primary School,Not Selective,N,Comprehensive,Kinder to Year 6,,N,N,N,Coed,9750 0652,belmorenth-p.school@det.nsw.edu.au,9758 1109,N,1/11/03,Canterbury (C),Canterbury,Watson,Ultimo,Canterbury,"South Eastern Sydney, Northern Sydney & Sydney",Sydney,Metropolitan South West,Major Cities of Australia,-33.909885,151.084885,7/3/17
1186,8560,Belmore South Public School,Nelson Ave & Canterbury Rd,Belmore ,2192,247,4,89,970,Primary School,Not Selective,N,Comprehensive,Kinder to Year 6,,N,N,N,Coed,9759 4388,belmoresth-p.school@det.nsw.edu.au,9740 4323,N,1862-01-01,Canterbury (C),Canterbury,Watson,Ultimo,Canterbury,"South Eastern Sydney, Northern Sydney & Sydney",Sydney,Metropolitan South West,Major Cities of Australia,-33.925735,151.091985,7/3/17
1189,10185,Bemboka Public School,Kameruka St,Bemboka ,2550,51,16,17,950,Primary School,Not Selective,N,Comprehensive,Kinder to Year 6,,N,N,N,Coed,6493 0229,bemboka-p.school@det.nsw.edu.au,6493 0452,N,1871-08-01,Bega Valley (A),Bega,Eden-Monaro,Dubbo & Wagga Wagga,Far South Coast,Illawarra Shoalhaven & Southern NSW,Southern NSW,Lower South Coast,Outer Regional Australia,-36.631309,149.571075,7/3/17
1191,9380,Bendemeer Public School,Charles St,Bendemeer ,2355,17,np,0,904,Primary School,Not Selective,N,Comprehensive,Kinder to Year 6,,N,N,N,Coed,6769 6532,bendemeer-p.school@det.nsw.edu.au,6769 6400,N,1860-02-01,Tamworth Regional (A),Tamworth,New England,Tamworth & Coffs Harbour,Tamworth,Hunter New England & Central Coast,Hunter New England,North Western 2,Outer Regional Australia,-30.886984,151.150991,7/3/17
1196,9414,Ben Lomond Public School,Inn Rd,Ben Lomond ,2365,7,0,0,1002,Primary School,Not Selective,N,Comprehensive,Kinder to Year 6,,N,N,N,Coed,6733 2001,benlomond-p.school@det.nsw.edu.au,6733 2104,N,1885-06-01,Guyra (A),Northern Tablelands,New England,Tamworth & Coffs Harbour,Northern Tablelands,Hunter New England & Central Coast,Hunter New England,North Western 2,Outer Regional Australia,-30.017024,151.661287,7/3/17
1198,9374,Ben Venue Public School,Erskine St,Armidale ,2350,565,12,16,1022,Primary School,Not Selective,N,Comprehensive,Kinder to Year 6,,N,N,N,Coed,6772 4263,benvenue-p.school@det.nsw.edu.au,6771 2037,N,1/4/00,Armidale Dumaresq (A),Northern Tablelands,New England,Tamworth & Coffs Harbour,Northern Tablelands,Hunter New England & Central Coast,Hunter New England,North Western 2,Inner Regional Australia,-30.502884,151.67462,7/3/17
1199,5498,Berala Public School,Harrow Rd,Berala,2141,852,1,96,1000,Primary School,Not Selective,N,Comprehensive,Kinder to Year 6,,N,N,N,Coed,9649 7146,berala-p.school@det.nsw.edu.au,9749 2298,N,1/1/22,Auburn (C),Auburn,Blaxland,Ultimo,Strathfield,Western Sydney & Nepean Blue Mountains,Western Sydney,Metropolitan South West,Major Cities of Australia,-33.869714,151.028244,7/3/17
1201,9183,Beresfield Public School,181-183 Anderson Dr (Cnr Lawson Ave),Beresfield,2322,290,13,3,916,Primary School,Not Selective,N,Comprehensive,Kinder to Year 6,,N,N,N,Coed,4966 1146,beresfield-p.school@det.nsw.edu.au,4966 2492,N,1883-01-01,Newcastle (C),Wallsend,Paterson,Tamworth & Coffs Harbour,Maitland,Hunter New England & Central Coast,Hunter New England,Hunter,Major Cities of Australia,-32.803964,151.654863,7/3/17
1202,9969,Berkeley Public School,George St,Berkeley ,2506,335,14,29,906,Primary School,Not Selective,N,Comprehensive,Kinder to Year 6,,N,N,N,Coed,4271 1171,berkeley-p.school@det.nsw.edu.au,4271 4304,N,1858-01-01,Wollongong (C),Wollongong,Whitlam,Dubbo & Wagga Wagga,Wollongong,Illawarra Shoalhaven & Southern NSW,Illawarra Shoalhaven,Upper South Coast,Major Cities of Australia,-34.480214,150.856493,7/3/17
1203,8706,Berkeley Vale Public School,Pindarri Ave,Berkeley Vale ,2259,775,8,4,990,Primary School,Not Selective,N,Comprehensive,Kinder to Year 6,,N,N,N,Coed,4388 1796,berkeleyva-p.school@det.nsw.edu.au,4389 1178,N,1/10/15,Wyong (A),The Entrance,Dobell,Macquarie Park,Wyong,Hunter New England & Central Coast,Central Coast,Central Coast,Major Cities of Australia,-33.350515,151.435888,7/3/17
1204,10178,Bermagui Public School,George St,Bermagui ,2546,169,14,6,928,Primary School,Not Selective,N,Comprehensive,Kinder to Year 6,,N,N,N,Coed,6493 4271,bermagui-p.school@det.nsw.edu.au,6493 4425,N,1876-10-01,Bega Valley (A),Bega,Eden-Monaro,Dubbo & Wagga Wagga,Far South Coast,Illawarra Shoalhaven & Southern NSW,Southern NSW,Lower South Coast,Outer Regional Australia,-36.420776,150.063625,7/3/17
1205,7676,Berowra Public School,Hillcrest Rd,Berowra ,2081,395,np,12,1095,Primary School,Not Selective,N,Comprehensive,Kinder to Year 6,,N,N,N,Coed,9456 1319,berowra-p.school@det.nsw.edu.au,9456 3375,N,1894-11-01,Hornsby (A),Hornsby,Berowra,Macquarie Park,Hornsby,"South Eastern Sydney, Northern Sydney & Sydney",Northern Sydney,Metropolitan North,Major Cities of Australia,-33.618522,151.148996,7/3/17
1206,10424,Berridale Public School,Oliver St,Berridale ,2628,71,np,np,986,Primary School,Not Selective,N,Comprehensive,Kinder to Year 6,,N,N,N,Coed,6456 3228,berridale-p.school@det.nsw.edu.au,6456 3429,N,1883-04-01,Snowy River (A),Monaro,Eden-Monaro,Dubbo & Wagga Wagga,Queanbeyan,Illawarra Shoalhaven & Southern NSW,Southern NSW,Lower South Coast,Outer Regional Australia,-36.371444,148.827209,7/3/17
1207,10636,Berrigan Public School,25-29 Momalong St,Berrigan ,2712,82,np,np,952,Primary School,Not Selective,N,Comprehensive,Kinder to Year 6,,N,N,N,Coed,03 5885 2209,berrigan-p.school@det.nsw.edu.au,03 5885 2661,N,1891-10-01,Berrigan (A),Murray,Farrer,Dubbo & Wagga Wagga,Deniliquin,"Murrumbidgee, Far West & Western NSW",Murrumbidgee,Riverina 2 ,Outer Regional Australia,-35.659667,145.815664,7/3/17
1209,10244,Berrima Public School,Oxley St,Berrima ,2577,140,5,7,1027,Primary School,Not Selective,N,Comprehensive,Kinder to Year 6,,N,N,N,Coed,4877 1262,berrima-p.school@det.nsw.edu.au,4877 1041,N,1855-10-01,Wingecarribee (A),Goulburn,Whitlam,Ultimo,Wollondilly,South Western Sydney,South Western Sydney,Upper South Coast,Inner Regional Australia,-34.485882,150.340775,7/3/17
1211,10052,Berry Public School,Victoria St,Berry ,2535,338,3,7,1069,Primary School,Not Selective,N,Comprehensive,Kinder to Year 6,,N,N,N,Coed,4464 1158,berry-p.school@det.nsw.edu.au,4464 1664,N,1860-06-01,Shoalhaven (C),Kiama,Gilmore,Dubbo & Wagga Wagga,South Coast,Illawarra Shoalhaven & Southern NSW,Illawarra Shoalhaven,Upper South Coast,Inner Regional Australia,-34.778317,150.689706,7/3/17
1215,8601,Beverly Hills Public School,Stoney Creek & King Georges Rds,Beverly Hills ,2209,527,np,83,1050,Primary School,Not Selective,N,Comprehensive,Kinder to Year 6,,N,N,N,Coed,9580 5074,beverlyhi-p.school@det.nsw.edu.au,9580 7052,N,1892-04-01,Hurstville (C),Kogarah,Barton,Ultimo,Canterbury,"South Eastern Sydney, Northern Sydney & Sydney",South Eastern Sydney,Metropolitan East,Major Cities of Australia,-33.953449,151.085209,7/3/17
1217,9778,Bexhill Public School,12 Withers St,Bexhill,2480,103,8,7,1037,Primary School,Not Selective,N,Comprehensive,Kinder to Year 6,,N,N,N,Coed,6628 4223,bexhill-p.school@det.nsw.edu.au,6628 4248,N,1882-01-01,Lismore (C),Lismore,Page,Tamworth & Coffs Harbour,Lismore,Mid North Coast & Northern NSW,Northern NSW,Upper North Coast,Inner Regional Australia,-28.766026,153.345835,7/3/17
1223,10416,Bigga Public School,Blackman St,Bigga ,2583,13,0,0,1022,Primary School,Not Selective,N,Comprehensive,Kinder to Year 6,,N,N,N,Coed,4835 2236,bigga-p.school@det.nsw.edu.au,4835 2246,N,1884-03-01,Upper Lachlan Shire (A),Goulburn,Hume,Dubbo & Wagga Wagga,Southern Tablelands,Illawarra Shoalhaven & Southern NSW,Southern NSW,Western 1 ,Outer Regional Australia,-34.0847,149.144602,7/3/17
1224,9923,Bilambil Public School,Bilambil Rd,Bilambil ,2486,312,7,4,990,Primary School,Not Selective,N,Comprehensive,Kinder to Year 6,,N,N,N,Coed,07 5590 7210,bilambil-p.school@det.nsw.edu.au,07 5590 7075,N,1898-09-01,Tweed (A),Tweed,Richmond,Tamworth & Coffs Harbour,Tweed,Mid North Coast & Northern NSW,Northern NSW,Upper North Coast,Major Cities of Australia,-28.223742,153.468431,7/3/17
1227,14695,Ocean Shores Public School,166 Shara Boulevarde,Ocean Shores,2483,357,3,16,1044,Primary School,Not Selective,N,Comprehensive,Kinder to Year 6,,N,N,N,Coed,6680 2766,oceanshore-p.school@det.nsw.edu.au,6680 2764,N,1893-08-01,Byron (A),Ballina,Richmond,Tamworth & Coffs Harbour,Lismore,Mid North Coast & Northern NSW,Northern NSW,Upper North Coast,Inner Regional Australia,-28.491203,153.540337,7/3/17
1228,10761,Bilpin Public School,Bells Line of Road,Bilpin ,2758,67,np,np,1022,Primary School,Not Selective,N,Comprehensive,Kinder to Year 6,,N,N,N,Coed,4567 1154,bilpin-p.school@det.nsw.edu.au,4567 1388,N,1/2/27,Hawkesbury (C),Hawkesbury,Macquarie,Macquarie Park,Hawkesbury,Western Sydney & Nepean Blue Mountains,Nepean Blue Mountains,Metropolitan West,Inner Regional Australia,-33.497331,150.516765,7/3/17
1230,10282,Binalong Public School,Dickinson Street,Binalong,2584,30,0,np,976,Primary School,Not Selective,N,Comprehensive,Kinder to Year 6,,N,N,N,Coed,6227 4381,binalong-p.school@det.nsw.edu.au,6227 4380,N,1861-03-01,Yass Valley (A),Goulburn,Eden-Monaro,Dubbo & Wagga Wagga,Cootamundra,Illawarra Shoalhaven & Southern NSW,Southern NSW,Riverina 1,Inner Regional Australia,-34.670108,148.625718,7/3/17
1231,10417,Binda Public School,Queen St,Binda ,2583,11,64,0,776,Primary School,Not Selective,N,Comprehensive,Kinder to Year 6,,N,N,N,Coed,4835 6052,binda-p.school@det.nsw.edu.au,4835 6092,N,1851-05-01,Upper Lachlan Shire (A),Goulburn,Hume,Dubbo & Wagga Wagga,Southern Tablelands,Illawarra Shoalhaven & Southern NSW,Southern NSW,Western 1 ,Outer Regional Australia,-34.331463,149.368114,7/3/17
1234,9506,Bingara Central School,Finch St,Bingara ,2404,197.2,17,np,912,Central/Community School,Not Selective,N,Comprehensive,Kinder to Year 12,,N,N,N,Coed,6724 1606,bingara-c.school@det.nsw.edu.au,6724 1927,N,1862-01-01,Gwydir (A),Northern Tablelands,New England,Tamworth & Coffs Harbour,Barwon,Hunter New England & Central Coast,Hunter New England,North Western 2,Outer Regional Australia,-29.866705,150.56725,7/3/17
1237,16165,Binnaway Central School,David St,Binnaway,2395,66.6,32,9,832,Central/Community School,Not Selective,N,Comprehensive,Kinder to Year 12,,N,N,N,Coed,6844 1606,binnaway-c.school@det.nsw.edu.au,6844 1601,N,1878-07-01,Warrumbungle Shire (A),Barwon,Parkes,Dubbo & Wagga Wagga,Western Plains,"Murrumbidgee, Far West & Western NSW",Western NSW,North Western 1,Outer Regional Australia,-31.552793,149.374951,7/3/17
1238,10523,Binya Public School,16 Stephensons Rd,Binya,2665,13,np,0,1011,Primary School,Not Selective,N,Comprehensive,Kinder to Year 6,,N,N,N,Coed,6968 3221,binya-p.school@det.nsw.edu.au,6968 3206,N,1/9/19,Narrandera (A),Cootamundra,Farrer,Dubbo & Wagga Wagga,Griffith,"Murrumbidgee, Far West & Western NSW",Murrumbidgee,Riverina 1 ,Outer Regional Australia,-34.228678,146.353034,7/3/17
1240,5798,Birchgrove Public School,Birchgrove Rd,Balmain ,2041,356,np,25,1156,Primary School,Not Selective,N,Comprehensive,Kinder to Year 6,,Y,N,N,Coed,9810 2469,birchgrove-p.school@det.nsw.edu.au,9555 8653,N,1885-03-01,Leichhardt (A),Balmain,Grayndler,Ultimo,Port Jackson,"South Eastern Sydney, Northern Sydney & Sydney",Sydney,Metropolitan East,Major Cities of Australia,-33.853009,151.177045,7/3/17
1246,10873,Blackheath Public School,Leichhardt St,Blackheath ,2785,332,2,11,1077,Primary School,Not Selective,N,Comprehensive,Kinder to Year 6,,N,N,N,Coed,4787 8253,blackheath-p.school@det.nsw.edu.au,4787 8320,N,1885-07-01,Blue Mountains (C),Blue Mountains,Macquarie,Macquarie Park,Blue Mountains,Western Sydney & Nepean Blue Mountains,Nepean Blue Mountains,Metropolitan West,Inner Regional Australia,-33.639284,150.285831,7/3/17
1247,9186,Black Hill Public School,408 Black Hill Rd,Black Hill ,2322,103,8,np,1009,Primary School,Not Selective,N,Comprehensive,Kinder to Year 6,,N,N,N,Coed,4930 3137,blackhill-p.school@det.nsw.edu.au,4930 3105,N,1881-08-01,Cessnock (C),Cessnock,Paterson,Tamworth & Coffs Harbour,Maitland,Hunter New England & Central Coast,Hunter New England,Hunter,Major Cities of Australia,-32.838523,151.617131,7/3/17
1249,9415,Black Mountain Public School,815 Black Mountain Rd,Black Mountain ,2365,32,31,0,976,Primary School,Not Selective,N,Comprehensive,Kinder to Year 6,,N,N,N,Coed,6775 0192,blackmtn-p.school@det.nsw.edu.au,6775 0228,N,1882-02-01,Guyra (A),Northern Tablelands,New England,Tamworth & Coffs Harbour,Northern Tablelands,Hunter New England & Central Coast,Hunter New England,North Western 2,Outer Regional Australia,-30.308489,151.657688,7/3/17
1252,9362,Blackville Public School,O'Neile St,Blackville ,2343,15,40,0,939,Primary School,Not Selective,N,Comprehensive,Kinder to Year 6,,N,N,N,Coed,6747 4024,blackville-p.school@det.nsw.edu.au,6747 4100,N,1876-05-01,Liverpool Plains (A),Upper Hunter,New England,Tamworth & Coffs Harbour,Wollemi,Hunter New England & Central Coast,Hunter New England,North Western 1,Outer Regional Australia,-31.64044,150.237489,7/3/17
1254,9780,Blakebrook Public School,Rosehill Rd,Blakebrook ,2480,94,np,np,1002,Primary School,Not Selective,N,Comprehensive,Kinder to Year 6,,N,N,N,Coed,6629 3263,blakebrook-p.school@det.nsw.edu.au,6629 3181,N,1868-03-01,Lismore (C),Lismore,Page,Tamworth & Coffs Harbour,Richmond Valley,Mid North Coast & Northern NSW,Northern NSW,Upper North Coast,Inner Regional Australia,-28.763426,153.229992,7/3/17
1255,16167,Blakehurst Public School,Dewrang St,Blakehurst ,2221,288,3,67,1027,Primary School,Not Selective,N,Comprehensive,Kinder to Year 6,,N,N,N,Coed,9546 1555,blakehurst-p.school@det.nsw.edu.au,9547 1796,N,1882-01-01,Kogarah (C),Kogarah,Cook,Ultimo,Port Hacking,"South Eastern Sydney, Northern Sydney & Sydney",South Eastern Sydney,Metropolitan East,Major Cities of Australia,-33.98298,151.115779,7/3/17
1256,9340,Blandford Public School,New England Hwy,Blandford ,2338,41,17,np,999,Primary School,Not Selective,N,Comprehensive,Kinder to Year 6,,N,N,N,Coed,6546 6117,blandford-p.school@det.nsw.edu.au,6546 6023,N,1871-09-01,Upper Hunter Shire (A),Upper Hunter,New England,Tamworth & Coffs Harbour,Wollemi,Hunter New England & Central Coast,Hunter New England,Hunter,Outer Regional Australia,-31.778585,150.892725,7/3/17
1257,7791,Blaxcell Street Public School,352 Blaxcell Street,Granville,2142,810,1,96,951,Primary School,Not Selective,Y,Comprehensive,Kinder to Year 6,,N,N,N,Coed,9632 8162,blaxcellst-p.school@det.nsw.edu.au,9892 2713,N,1/1/24,Parramatta (C),Auburn,Blaxland,Macquarie Park,Holroyd,Western Sydney & Nepean Blue Mountains,Western Sydney,Metropolitan South West,Major Cities of Australia,-33.858068,151.006125,7/3/17
1258,5309,Blaxland Public School,Baden Place,Blaxland,2774,141,9,10,1043,Primary School,Not Selective,N,Comprehensive,Kinder to Year 6,,N,N,N,Coed,4739 2817,blaxland-p.school@det.nsw.edu.au,4739 8630,N,1/9/26,Blue Mountains (C),Blue Mountains,Macquarie,Macquarie Park,Blue Mountains,Western Sydney & Nepean Blue Mountains,Nepean Blue Mountains,Metropolitan West,Major Cities of Australia,-33.737103,150.603489,7/3/17
1260,10999,Blayney Public School,Lindsay St,Blayney ,2799,293,10,3,959,Primary School,Not Selective,N,Comprehensive,Kinder to Year 6,,N,N,N,Coed,6368 2154,blayney-p.school@det.nsw.edu.au,6368 3019,N,1858-08-01,Blayney (A),Bathurst,Calare,Dubbo & Wagga Wagga,Bathurst,"Murrumbidgee, Far West & Western NSW",Western NSW,Western 1,Inner Regional Australia,-33.528987,149.251583,7/3/17
1261,10637,Blighty Public School,Blighty School Rd,Blighty ,2713,30,0,np,983,Primary School,Not Selective,N,Comprehensive,Kinder to Year 6,,N,N,N,Coed,03 5882 6238,blighty-p.school@det.nsw.edu.au,03 5882 6248,N,1/8/29,Conargo (A),Murray,Farrer,Dubbo & Wagga Wagga,Deniliquin,"Murrumbidgee, Far West & Western NSW",Murrumbidgee,Riverina 2,Outer Regional Australia,-35.580094,145.349272,7/3/17
1266,9654,Boambee Public School,30 Lindsays Rd,Boambee,2450,428,11,5,985,Primary School,Not Selective,N,Comprehensive,Kinder to Year 6,,N,N,N,Coed,6653 1107,boambee-p.school@det.nsw.edu.au,6658 2543,N,1/2/02,Coffs Harbour (C),Coffs Harbour,Cowper,Tamworth & Coffs Harbour,Coffs Harbour,Mid North Coast & Northern NSW,Mid North Coast,Lower North Coast,Inner Regional Australia,-30.334055,153.077009,7/3/17
1269,9539,Bobin Public School,Bulga Rd,Bobin ,2429,13,0,np,998,Primary School,Not Selective,N,Comprehensive,Kinder to Year 6,,N,N,N,Coed,6550 5147,bobin-p.school@det.nsw.edu.au,6550 5049,N,1883-04-01,Greater Taree (C),Myall Lakes,Lyne,Tamworth & Coffs Harbour,Great Lakes,Hunter New England & Central Coast,Hunter New England,Manning,Outer Regional Australia,-31.712682,152.28388,7/3/17
1271,9128,Bobs Farm Public School,764 Marsh Rd,Bobs Farm,2316,31,np,np,984,Primary School,Not Selective,N,Comprehensive,Kinder to Year 6,,N,N,N,Coed,4982 1179,bobsfarm-p.school@det.nsw.edu.au,4982 1982,N,1/7/18,Port Stephens (A),Port Stephens,Paterson,Tamworth & Coffs Harbour,Callaghan/Port Stephens,Hunter New England & Central Coast,Hunter New England,Hunter,Inner Regional Australia,-32.766796,152.010937,7/3/17
1272,10175,Bodalla Public School,Potato Point Rd,Bodalla ,2545,89,33,np,915,Primary School,Not Selective,N,Comprehensive,Kinder to Year 6,,N,N,N,Coed,4473 5257,bodalla-p.school@det.nsw.edu.au,4473 5254,N,1867-07-01,Eurobodalla (A),Bega,Eden-Monaro,Dubbo & Wagga Wagga,Far South Coast,Illawarra Shoalhaven & Southern NSW,Southern NSW,Lower South Coast,Outer Regional Australia,-36.09938,150.053879,7/3/17
1274,11105,Bogan Gate Public School,5 Bogan Street,Bogan Gate,2876,8,0,0,903,Primary School,Not Selective,N,Comprehensive,Kinder to Year 6,,N,N,N,Coed,6864 1124,bogangate-p.school@det.nsw.edu.au,6864 1046,N,1883-01-01,Parkes (A),Orange,Riverina,Dubbo & Wagga Wagga,Lachlan,"Murrumbidgee, Far West & Western NSW",Western NSW,Western 1,Outer Regional Australia,-33.104968,147.797859,7/3/17
1275,14959,Boggabilla Central School,South St,Boggabilla ,2409,78.6,95,np,626,Central/Community School,Not Selective,N,Comprehensive,Kinder to Year 12,,Y,N,N,Coed,07 4676 2104,boggabilla-c.school@det.nsw.edu.au,07 4676 2442,Y,1879-05-01,Moree Plains (A),Northern Tablelands,Parkes,Tamworth & Coffs Harbour,Barwon,Hunter New England & Central Coast,Hunter New England,North Western 1,Outer Regional Australia,-28.616586,150.361593,7/3/17
1276,9487,Boggabri Public School,Merton St,Boggabri ,2382,118,24,0,878,Primary School,Not Selective,N,Comprehensive,Kinder to Year 6,,N,N,N,Coed,6743 4526,boggabri-p.school@det.nsw.edu.au,6743 4276,N,1873-06-01,Narrabri (A),Barwon,Parkes,Tamworth & Coffs Harbour,Tamworth,Hunter New England & Central Coast,Hunter New England,North Western 1,Outer Regional Australia,-30.705682,150.043053,7/3/17
1286,9156,Bolwarra Public School,Bolwarra Rd,Bolwarra ,2320,473,4,5,1041,Primary School,Not Selective,N,Comprehensive,Kinder to Year 6,,N,N,N,Coed,4930 1296,bolwarra-p.school@det.nsw.edu.au,4930 0032,N,1852-01-01,Maitland (C),Maitland,Lyne,Tamworth & Coffs Harbour,Maitland,Hunter New England & Central Coast,Hunter New England,Hunter ,Major Cities of Australia,-32.706994,151.573008,7/3/17
1287,10168,Bomaderry Public School,Cambewarra Rd,Bomaderry ,2541,332,32,7,897,Primary School,Not Selective,N,Comprehensive,Kinder to Year 6,,N,N,N,Coed,4421 6577,bomaderry-p.school@det.nsw.edu.au,4423 1847,N,1867-07-01,Shoalhaven (C),Kiama,Gilmore,Dubbo & Wagga Wagga,South Coast,Illawarra Shoalhaven & Southern NSW,Illawarra Shoalhaven,Upper South Coast,Inner Regional Australia,-34.847379,150.608269,7/3/17
1288,10436,Bombala Public School,8 Bright St,Bombala,2632,124,7,np,947,Primary School,Not Selective,N,Comprehensive,Kinder to Year 6,,N,N,N,Coed,6458 3423,bombala-p.school@det.nsw.edu.au,6458 3376,N,1863-09-01,Bombala (A),Monaro,Eden-Monaro,Dubbo & Wagga Wagga,Queanbeyan,Illawarra Shoalhaven & Southern NSW,Southern NSW,Lower South Coast,Outer Regional Australia,-36.918986,149.233792,7/3/17
1290,6443,Bonalbo Central School,Yabbra St,Bonalbo,2469,144.2,28,5,880,Central/Community School,Not Selective,N,Comprehensive,Kinder to Year 12,,N,N,N,Coed,6665 1205,bonalbo-c.school@det.nsw.edu.au,6665 1251,N,1/11/11,Kyogle (A),Lismore,Page,Tamworth & Coffs Harbour,Clarence Valley,Mid North Coast & Northern NSW,Northern NSW,Upper North Coast,Outer Regional Australia,-28.735472,152.623959,7/3/17
1292,4421,Bondi Beach Public School,Campbell Pde,Bondi Beach ,2026,604,np,25,1144,Primary School,Not Selective,N,Comprehensive,Kinder to Year 6,,N,N,N,Coed,9130 2116,bondibeach-p.school@det.nsw.edu.au,9130 3932,N,1/7/23,Waverley (A),Vaucluse,Wentworth,Ultimo,Port Jackson,"South Eastern Sydney, Northern Sydney & Sydney",South Eastern Sydney,Metropolitan East,Major Cities of Australia,-33.8883,151.276821,7/3/17
1293,10666,Bongongo Public School,Adjungbilly Rd,Adjungbilly,2727,13,np,0,928,Primary School,Not Selective,N,Comprehensive,Kinder to Year 6,,N,N,N,Coed,6946 6214,bongongo-p.school@det.nsw.edu.au,6946 6207,N,1886-10-01,Gundagai (A),Cootamundra,Riverina,Dubbo & Wagga Wagga,Cootamundra,"Murrumbidgee, Far West & Western NSW",Murrumbidgee,Riverina 1,Outer Regional Australia,-35.08463,148.399517,7/3/17
1296,16154,Bonshaw Public School,Texas St,Bonshaw ,2361,14,0,np,1007,Primary School,Not Selective,N,Comprehensive,Kinder to Year 6,,N,N,N,Coed,07 4653 5147,bonshaw-p.school@det.nsw.edu.au,07 4653 5232,Y,1/10/14,Inverell (A),Northern Tablelands,New England,Tamworth & Coffs Harbour,Barwon,Hunter New England & Central Coast,Hunter New England,North Western 2,Outer Regional Australia,-29.046366,151.278092,7/3/17
1297,9630,Bonville Public School,11 Gleniffer Rd,Bonville ,2441,140,4,6,1007,Primary School,Not Selective,N,Comprehensive,Kinder to Year 6,,N,N,N,Coed,6653 4250,bonville-p.school@det.nsw.edu.au,6653 4092,N,1888-04-01,Coffs Harbour (C),Coffs Harbour,Cowper,Tamworth & Coffs Harbour,Coffs Harbour,Mid North Coast & Northern NSW,Mid North Coast,Lower North Coast,Inner Regional Australia,-30.379782,153.032316,7/3/17
1302,8988,Boolaroo Public School,Main Rd & Second St,Boolaroo ,2284,52,15,np,903,Primary School,Not Selective,N,Comprehensive,Kinder to Year 6,,N,N,N,Coed,4958 1479,boolaroo-p.school@det.nsw.edu.au,4958 2208,N,1/7/00,Lake Macquarie (C),Lake Macquarie,Shortland,Tamworth & Coffs Harbour,Lake Macquarie West,Hunter New England & Central Coast,Hunter New England,Hunter ,Major Cities of Australia,-32.951196,151.622765,7/3/17
1303,10631,Booligal Public School,Harvey St,Booligal ,2711,10,0,0,1055,Primary School,Not Selective,N,Comprehensive,Kinder to Year 6,,N,N,N,Coed,6993 8107,booligal-p.school@det.nsw.edu.au,6993 8167,Y,1871-01-01,Hay (A),Murray,Farrer,Dubbo & Wagga Wagga,Deniliquin,"Murrumbidgee, Far West & Western NSW",Murrumbidgee,Riverina 2 ,Remote Australia,-33.86704,144.886395,7/3/17
1307,9508,Boomi Public School,Werrina Street,Boomi ,2405,33,21,np,920,Primary School,Not Selective,N,Comprehensive,Kinder to Year 6,,N,N,N,Coed,6753 5221,boomi-p.school@det.nsw.edu.au,6753 5332,Y,1/9/01,Moree Plains (A),Northern Tablelands,Parkes,Tamworth & Coffs Harbour,Barwon,Hunter New England & Central Coast,Hunter New England,North Western 1,Remote Australia,-28.724129,149.577268,7/3/17
1311,9532,Booral Public School,2800 Bucketts Way,Booral ,2425,71,10,np,950,Primary School,Not Selective,N,Comprehensive,Kinder to Year 6,,N,N,N,Coed,4994 9266,booral-p.school@det.nsw.edu.au,4994 9102,N,1865-10-01,Great Lakes (A),Upper Hunter,Lyne,Tamworth & Coffs Harbour,Great Lakes,Hunter New England & Central Coast,Hunter New England,Manning,Inner Regional Australia,-32.471428,151.960736,7/3/17
1313,10284,Boorowa Central School,Pudman St,Boorowa ,2586,234.6,7,np,945,Central/Community School,Not Selective,N,Comprehensive,Kinder to Year 12,,N,N,N,Coed,6385 3009,boorowa-c.school@det.nsw.edu.au,6385 3409,N,1870-01-01,Boorowa (A),Goulburn,Hume,Dubbo & Wagga Wagga,Southern Tablelands,"Murrumbidgee, Far West & Western NSW",Murrumbidgee,Upper South Coast,Inner Regional Australia,-34.436712,148.726108,7/3/17
1318,10494,Boree Creek Public School,Lockhart-Morundah Rd,Boree Creek ,2652,21,np,0,931,Primary School,Not Selective,N,Comprehensive,Kinder to Year 6,,N,N,N,Coed,6927 1478,boreecreek-p.school@det.nsw.edu.au,6927 1476,N,1/5/02,Urana (A),Albury,Farrer,Dubbo & Wagga Wagga,Wagga Wagga,"Murrumbidgee, Far West & Western NSW",Murrumbidgee,Riverina 1,Outer Regional Australia,-35.105937,146.606338,7/3/17
1320,7730,Boronia Park Public School,113 Pittwater Rd,Hunters Hill,2110,488,np,25,1131,Primary School,Not Selective,N,Comprehensive,Kinder to Year 6,,N,N,N,Coed,9817 2778,boroniapk-p.school@det.nsw.edu.au,9816 3263,N,1/4/29,Hunters Hill (A),Lane Cove,North Sydney,Macquarie Park,North Sydney,"South Eastern Sydney, Northern Sydney & Sydney",Northern Sydney,Metropolitan North,Major Cities of Australia,-33.821414,151.135558,7/3/17
1321,8551,Bossley Park Public School,Marconi Rd,Bossley Park ,2176,413,np,82,983,Primary School,Not Selective,N,Comprehensive,Kinder to Year 6,,N,N,N,Coed,9610 6286,bossleypk-p.school@det.nsw.edu.au,9823 4832,N,1890-11-01,Fairfield (C),Prospect,Fowler,Ultimo,Fairfield,South Western Sydney,South Western Sydney,Metropolitan South West,Major Cities of Australia,-33.858524,150.883076,7/3/17
1323,6494,Botany Public School,1076 Botany Rd,Botany ,2019,266,np,48,1059,Primary School,Not Selective,N,Comprehensive,Kinder to Year 6,,N,N,N,Coed,9316 8889,botany-p.school@det.nsw.edu.au,9316 4086,N,1849-01-01,Botany Bay (C),Maroubra,Kingsford Smith,Ultimo,Botany Bay,"South Eastern Sydney, Northern Sydney & Sydney",South Eastern Sydney,Metropolitan East,Major Cities of Australia,-33.94316,151.194687,7/3/17
1326,11062,Bourke Public School,19 Green Street,Bourke,2840,227,78,np,738,Primary School,Not Selective,N,Comprehensive,Kinder to Year 6,,N,N,N,Coed,6872 2051,bourke-p.school@det.nsw.edu.au,6872 2278,Y,1866-08-01,Bourke (A),Barwon,Parkes,Dubbo & Wagga Wagga,Western Plains,"Murrumbidgee, Far West & Western NSW",Western NSW,Western 2,Very Remote Australia,-30.09351,145.94968,7/3/17
1334,10277,Bowning Public School,147 Bowning Road,Bowning ,2582,28,21,0,924,Primary School,Not Selective,N,Comprehensive,Kinder to Year 6,,N,N,N,Coed,6227 6093,bowning-p.school@det.nsw.edu.au,6227 6121,N,1849-10-01,Yass Valley (A),Goulburn,Eden-Monaro,Dubbo & Wagga Wagga,Southern Tablelands,Illawarra Shoalhaven & Southern NSW,Southern NSW,Upper South Coast,Inner Regional Australia,-34.769376,148.81153,7/3/17
1335,10240,Bowral Public School,Bendooley Street,Bowral,2576,603,2,11,1075,Primary School,Not Selective,N,Comprehensive,Kinder to Year 6,,N,N,N,Coed,4861 1086,bowral-p.school@det.nsw.edu.au,4862 1004,N,1867-01-01,Wingecarribee (A),Wollondilly,Whitlam,Ultimo,Wollondilly,South Western Sydney,South Western Sydney,Upper South Coast,Inner Regional Australia,-34.481178,150.419191,7/3/17
1336,6363,Bowraville Central School,23 High Street,Bowraville,2449,254.4,36,3,845,Central/Community School,Not Selective,N,Comprehensive,Kinder to Year 12,,N,N,N,Coed,6564 7162,bowraville-c.school@det.nsw.edu.au,6564 7801,N,1872-09-01,Nambucca (A),Oxley,Cowper,Tamworth & Coffs Harbour,Mid North Coast,Mid North Coast & Northern NSW,Mid North Coast,Lower North Coast,Outer Regional Australia,-30.645289,152.853898,7/3/17
1340,10415,Braidwood Central School,Wilson St,Braidwood ,2622,376,6,7,982,Central/Community School,Not Selective,N,Comprehensive,Kinder to Year 12,,N,N,N,Coed,4842 2249,braidwood-c.school@det.nsw.edu.au,4842 2501,N,1849-08-01,Palerang (A),Monaro,Eden-Monaro,Dubbo & Wagga Wagga,Queanbeyan,Illawarra Shoalhaven & Southern NSW,Southern NSW,Lower South Coast,Inner Regional Australia,-35.440595,149.798888,7/3/17
1341,9331,Branxton Public School,12 King Street,Branxton,2335,355,10,2,959,Primary School,Not Selective,N,Comprehensive,Kinder to Year 6,,N,N,N,Coed,4938 1214,branxton-p.school@det.nsw.edu.au,4938 1905,N,1863-01-01,Cessnock (C),Cessnock,Hunter,Tamworth & Coffs Harbour,Maitland,Hunter New England & Central Coast,Hunter New England,Hunter,Inner Regional Australia,-32.659391,151.350682,7/3/17
1345,10272,Breadalbane Public School,Collector Road,Breadalbane,2581,10,0,np,971,Primary School,Not Selective,N,Comprehensive,Kinder to Year 6,,N,N,N,Coed,4844 2243,breadalban-p.school@det.nsw.edu.au,4844 2225,N,1875-03-01,Upper Lachlan Shire (A),Goulburn,Hume,Dubbo & Wagga Wagga,Southern Tablelands,Illawarra Shoalhaven & Southern NSW,Southern NSW,Upper South Coast ,Inner Regional Australia,-34.790546,149.487576,7/3/17
1346,10739,Colo Heights Public School,3018 Putty Road,Colo Heights,2756,53,np,0,914,Primary School,Not Selective,N,Comprehensive,Kinder to Year 6,,N,N,N,Coed,4565 0202,colohts-p.school@det.nsw.edu.au,4565 0160,N,1/5/39,Hawkesbury (C),Hawkesbury,Macquarie,Macquarie Park,Hawkesbury,Western Sydney & Nepean Blue Mountains,Nepean Blue Mountains,Metropolitan West,Outer Regional Australia,-33.372972,150.739776,7/3/17
1347,10422,Bredbo Public School,Monaro Hwy,Bredbo ,2626,12,0,0,1049,Primary School,Not Selective,N,Comprehensive,Kinder to Year 6,,N,N,N,Coed,6454 4107,bredbo-p.school@det.nsw.edu.au,6454 4007,N,1882-09-01,Cooma-Monaro (A),Monaro,Eden-Monaro,Dubbo & Wagga Wagga,Queanbeyan,Illawarra Shoalhaven & Southern NSW,Southern NSW,Lower South Coast,Inner Regional Australia,-35.95399,149.14797,7/3/17
1350,6450,Brewarrina Central School,Bourke Street,Brewarrina,2839,145.8,97,np,655,Central/Community School,Not Selective,N,Comprehensive,Kinder to Year 12,,N,N,N,Coed,6839 2186,brewarrina-c.school@det.nsw.edu.au,6839 2325,Y,1875-09-01,Brewarrina (A),Barwon,Parkes,Dubbo & Wagga Wagga,Western Plains,"Murrumbidgee, Far West & Western NSW",Western NSW,Western 2,Very Remote Australia,-29.963669,146.859088,7/3/17
1354,10295,Bribbaree Public School,Weedallion St,Bribbaree ,2594,12,0,0,865,Primary School,Not Selective,N,Comprehensive,Kinder to Year 6,,N,N,N,Coed,6383 2308,bribbaree-p.school@det.nsw.edu.au,6383 2248,N,1894-01-01,Young (A),Cootamundra,Riverina,Dubbo & Wagga Wagga,Southern Tablelands,"Murrumbidgee, Far West & Western NSW",Murrumbidgee,Western 1,Outer Regional Australia,-34.12042,147.874699,7/3/17
1358,16179,Brighton-Le-Sands Public School,35 Crawford Road,Brighton-Le-Sands,2216,753,np,79,1059,Primary School,Not Selective,N,Comprehensive,Kinder to Year 6,,N,N,N,Coed,9567 5449,brightonle-p.school@det.nsw.edu.au,9556 1660,N,1/4/17,Rockdale (C),Rockdale,Barton,Ultimo,Georges River,"South Eastern Sydney, Northern Sydney & Sydney",South Eastern Sydney,Metropolitan East,Major Cities of Australia,-33.962357,151.148929,7/3/17
1360,8547,Bringelly Public School,1205 The Northern Road,Bringelly,2556,132,5,29,927,Primary School,Not Selective,N,Comprehensive,Kinder to Year 6,,N,N,N,Coed,4774 8271,bringelly-p.school@det.nsw.edu.au,4774 9202,N,1878-01-01,Liverpool (C),Camden,Hume,Ultimo,Macarthur,South Western Sydney,South Western Sydney,Metropolitan South West,Inner Regional Australia,-33.93791,150.730266,7/3/17
1361,9747,Broadwater Public School,Pacific Hwy,Broadwater ,2472,44,np,np,973,Primary School,Not Selective,N,Comprehensive,Kinder to Year 6,,N,N,N,Coed,6682 8226,broadwater-p.school@det.nsw.edu.au,6682 8136,N,1881-10-01,Richmond Valley (A),Clarence,Page,Tamworth & Coffs Harbour,Lismore,Mid North Coast & Northern NSW,Northern NSW,Upper North Coast,Inner Regional Australia,-29.002773,153.437279,7/3/17
1363,10451,Brocklesby Public School,65 Main St,Brocklesby,2642,17,np,0,990,Primary School,Not Selective,N,Comprehensive,Kinder to Year 6,,N,N,N,Coed,6029 4272,brocklesby-p.school@det.nsw.edu.au,6029 4239,N,1898-06-01,Greater Hume Shire (A),Albury,Farrer,Dubbo & Wagga Wagga,Albury,"Murrumbidgee, Far West & Western NSW",Murrumbidgee,Riverina 1 ,Inner Regional Australia,-35.823911,146.677989,7/3/17
1367,9314,Broke Public School,Cochrane St,Broke ,2330,74,12,np,942,Primary School,Not Selective,N,Comprehensive,Kinder to Year 6,,N,N,N,Coed,6579 1040,broke-p.school@det.nsw.edu.au,6579 1242,N,1871-08-01,Singleton (A),Cessnock,Hunter,Tamworth & Coffs Harbour,Hunter,Hunter New England & Central Coast,Hunter New England,Hunter,Inner Regional Australia,-32.744976,151.104334,7/3/17
1369,11111,Broken Hill Public School,Mica St,Broken Hill ,2880,186,20,8,910,Primary School,Not Selective,N,Comprehensive,Kinder to Year 6,,Y,N,N,Coed,08 8087 3522,brokenhill-p.school@det.nsw.edu.au,08 8087 3903,Y,1886-12-01,Broken Hill (C),Barwon,Parkes,Dubbo & Wagga Wagga,Far West,"Murrumbidgee, Far West & Western NSW",Far West,Western 3,Outer Regional Australia,-31.956108,141.456502,7/3/17
1371,11110,Broken Hill North Public School,Chapple St,Broken Hill ,2880,254,30,7,860,Primary School,Not Selective,N,Comprehensive,Kinder to Year 6,,N,N,N,Coed,08 8088 2098,brokenhiln-p.school@det.nsw.edu.au,08 8087 2964,Y,1890-01-01,Broken Hill (C),Barwon,Parkes,Dubbo & Wagga Wagga,Far West,"Murrumbidgee, Far West & Western NSW",Far West,Western 3,Outer Regional Australia,-31.944457,141.471518,7/3/17
1372,6923,Bronte Public School,Hewlett St,Bronte ,2024,430,np,17,1162,Primary School,Not Selective,N,Comprehensive,Kinder to Year 6,,N,N,N,Coed,9389 4527,bronte-p.school@det.nsw.edu.au,9369 3001,N,1/1/27,Waverley (A),Coogee,Wentworth,Ultimo,Botany Bay,"South Eastern Sydney, Northern Sydney & Sydney",South Eastern Sydney,Metropolitan East,Major Cities of Australia,-33.900605,151.262011,7/3/17
1377,8694,Brooklyn Public School,106 Brooklyn Rd,Brooklyn ,2083,84,np,16,1068,Primary School,Not Selective,N,Comprehensive,Kinder to Year 6,,N,N,N,Coed,9985 7315,brooklyn-p.school@det.nsw.edu.au,9985 7852,N,1871-04-01,Hornsby (A),Hornsby,Berowra,Macquarie Park,Hornsby,"South Eastern Sydney, Northern Sydney & Sydney",Northern Sydney,Metropolitan North,Inner Regional Australia,-33.548414,151.214992,7/3/17
1379,7709,Brookvale Public School,Old Pittwater Rd,Brookvale ,2100,246,np,54,1037,Primary School,Not Selective,N,Comprehensive,Kinder to Year 6,,N,N,N,Coed,9905 4168,brookvale-p.school@det.nsw.edu.au,9905 7780,N,1887-11-01,Warringah (A),Wakehurst,Warringah,Macquarie Park,Warringah,"South Eastern Sydney, Northern Sydney & Sydney",Northern Sydney,Metropolitan North,Major Cities of Australia,-33.761678,151.270787,7/3/17
1387,16180,Brungle Public School,2 Brungle School Rd,Brungle ,2722,11,91,0,,Primary School,Not Selective,N,Comprehensive,Kinder to Year 6,,N,N,N,Coed,6944 9160,brungle-p.school@det.nsw.edu.au,6944 9147,N,1898-11-01,Tumut Shire (A),Wagga Wagga,Eden-Monaro,Dubbo & Wagga Wagga,Cootamundra,"Murrumbidgee, Far West & Western NSW",Murrumbidgee,Riverina 1,Inner Regional Australia,-35.156755,148.233572,7/3/17
1389,9909,Brunswick Heads Public School,Fingal St,Brunswick Heads ,2483,148,12,10,1005,Primary School,Not Selective,N,Comprehensive,Kinder to Year 6,,N,N,N,Coed,6685 1204,brunswickh-p.school@det.nsw.edu.au,6685 1312,N,1888-07-01,Byron (A),Ballina,Richmond,Tamworth & Coffs Harbour,Lismore,Mid North Coast & Northern NSW,Northern NSW,Upper North Coast,Inner Regional Australia,-28.541343,153.550848,7/3/17
1402,6431,Bulahdelah Central School,8 Meade Street,Bulahdelah ,2423,406.6,12,2,931,Central/Community School,Not Selective,N,Comprehensive,Kinder to Year 12,,N,N,N,Coed,4997 4329,bulahdelah-c.school@det.nsw.edu.au,4997 4512,N,1878-01-01,Great Lakes (A),Myall Lakes,Lyne,Tamworth & Coffs Harbour,Great Lakes,Hunter New England & Central Coast,Hunter New England,Manning,Inner Regional Australia,-32.413374,152.211848,7/3/17
1411,9992,Bulli Public School,Haig Rd,Bulli ,2516,192,6,11,1059,Primary School,Not Selective,N,Comprehensive,Kinder to Year 6,,N,N,N,Coed,4267 1723,bulli-p.school@det.nsw.edu.au,4268 1503,N,1869-07-01,Wollongong (C),Keira,Cunningham,Dubbo & Wagga Wagga,Wollongong North,Illawarra Shoalhaven & Southern NSW,Illawarra Shoalhaven,Upper South Coast,Major Cities of Australia,-34.326951,150.912703,7/3/17
1414,10251,Bundanoon Public School,Church St,Bundanoon ,2578,191,np,5,1039,Primary School,Not Selective,N,Comprehensive,Kinder to Year 6,,N,N,N,Coed,4883 6192,bundanoon-p.school@det.nsw.edu.au,4883 6799,N,1870-12-01,Wingecarribee (A),Goulburn,Hume,Ultimo,Wollondilly,South Western Sydney,South Western Sydney,Upper South Coast,Inner Regional Australia,-34.657878,150.300442,7/3/17
1415,9397,Bundarra Central School,Bowline Street,Bundarra,2359,142,21,np,863,Central/Community School,Not Selective,N,Comprehensive,Kinder to Year 12,,N,N,N,Coed,6723 7102,bundarra-c.school@det.nsw.edu.au,6723 7387,N,1868-01-01,Uralla (A),Northern Tablelands,New England,Tamworth & Coffs Harbour,Barwon,Hunter New England & Central Coast,Hunter New England,North Western 2,Outer Regional Australia,-30.168353,151.077625,7/3/17
1421,10413,Bungendore Public School,Gibraltar St,Bungendore ,2621,489,2,6,1060,Primary School,Not Selective,N,Comprehensive,Kinder to Year 6,,N,N,N,Coed,6238 1317,bungendore-p.school@det.nsw.edu.au,6238 1718,N,1868-01-01,Palerang (A),Monaro,Eden-Monaro,Dubbo & Wagga Wagga,Queanbeyan,Illawarra Shoalhaven & Southern NSW,Southern NSW,Upper South Coast,Inner Regional Australia,-35.255619,149.444628,7/3/17
1424,9529,Bungwahl Public School,56 Seal Rocks Road,Bungwahl,2423,41,15,np,996,Primary School,Not Selective,N,Comprehensive,Kinder to Year 6,,N,N,N,Coed,4997 6175,bungwahl-p.school@det.nsw.edu.au,4997 6306,N,1876-11-01,Great Lakes (A),Myall Lakes,Lyne,Tamworth & Coffs Harbour,Great Lakes,Hunter New England & Central Coast,Hunter New England,Manning,Inner Regional Australia,-32.389144,152.448558,7/3/17
1425,10674,Bunnaloo Public School,Fitzroy St,Bunnaloo,2731,46,np,0,1047,Primary School,Not Selective,N,Comprehensive,Kinder to Year 6,,N,N,N,Coed,03 5489 7275,bunnaloo-p.school@det.nsw.edu.au,03 5489 7228,Y,1/1/28,Murray (A),Murray,Farrer,Dubbo & Wagga Wagga,Deniliquin,"Murrumbidgee, Far West & Western NSW",Murrumbidgee,Riverina 2 ,Outer Regional Australia,-35.786399,144.597923,7/3/17
1432,11112,Burke Ward Public School,Rakow St,Broken Hill ,2880,321,22,3,911,Primary School,Not Selective,N,Comprehensive,Kinder to Year 6,,N,N,N,Coed,08 8088 4700,burkeward-p.school@det.nsw.edu.au,08 8087 3712,Y,1895-03-01,Broken Hill (C),Barwon,Parkes,Dubbo & Wagga Wagga,Far West,"Murrumbidgee, Far West & Western NSW",Far West,Western 3,Outer Regional Australia,-31.960361,141.441054,7/3/17
1433,16153,Burnside Public School,1 Masons Drive,North Parramatta ,2151,236,3,58,1128,Primary School,Not Selective,N,Comprehensive,Kinder to Year 6,,N,N,N,Coed,9630 1422,burnside-p.school@det.nsw.edu.au,9890 1876,N,1/4/22,The Hills Shire (A),Parramatta,Parramatta,Macquarie Park,Parramatta,Western Sydney & Nepean Blue Mountains,Western Sydney,Metropolitan West,Major Cities of Australia,-33.79258,151.018316,7/3/17
1445,10245,Burrawang Public School,Church St,Burrawang ,2577,31,0,np,1090,Primary School,Not Selective,N,Comprehensive,Kinder to Year 6,,N,N,N,Coed,4886 4261,burrawang-p.school@det.nsw.edu.au,4886 4248,N,1878-01-01,Wingecarribee (A),Goulburn,Whitlam,Ultimo,Wollondilly,South Western Sydney,South Western Sydney,Upper South Coast,Inner Regional Australia,-34.592222,150.51725,7/3/17
1447,9491,Burren Junction Public School,Alma St,Burren Junction ,2386,54,np,np,998,Primary School,Not Selective,N,Comprehensive,Kinder to Year 6,,N,N,N,Coed,6796 1464,burrenjunc-p.school@det.nsw.edu.au,6796 1458,Y,1/7/04,Walgett (A),Barwon,Parkes,Dubbo & Wagga Wagga,Western Plains,"Murrumbidgee, Far West & Western NSW",Western NSW,North Western 1,Remote Australia,-30.102686,148.964703,7/3/17
1449,9910,Burringbar Public School,59 Burringbar Road,Burringbar ,2483,64,np,np,978,Primary School,Not Selective,N,Comprehensive,Kinder to Year 6,,N,N,N,Coed,6677 1469,burringbar-p.school@det.nsw.edu.au,6677 1616,N,1894-01-01,Tweed (A),Tweed,Richmond,Tamworth & Coffs Harbour,Tweed,Mid North Coast & Northern NSW,Northern NSW,Upper North Coast,Inner Regional Australia,-28.436645,153.466738,7/3/17
1453,10452,Burrumbuttock Public School,Howlong Rd,Burrumbuttock ,2642,31,np,0,1014,Primary School,Not Selective,N,Comprehensive,Kinder to Year 6,,N,N,N,Coed,6029 3253,burrumbutt-p.school@det.nsw.edu.au,6029 3235,N,1889-01-01,Greater Hume Shire (A),Albury,Farrer,Dubbo & Wagga Wagga,Albury,"Murrumbidgee, Far West & Western NSW",Murrumbidgee,Riverina 1 ,Inner Regional Australia,-35.837489,146.800049,7/3/17
1455,7779,Burwood Public School,1-3 Conder Street,Burwood,2134,629,np,96,1090,Primary School,Not Selective,N,Comprehensive,Kinder to Year 6,,N,N,N,Coed,9745 2299,burwood-p.school@det.nsw.edu.au,9744 3613,N,1858-04-01,Burwood (A),Strathfield,Reid,Ultimo,Strathfield,"South Eastern Sydney, Northern Sydney & Sydney",Sydney,Metropolitan South West,Major Cities of Australia,-33.8768,151.098987,7/3/17
1460,10229,Buxton Public School,Hassall Rd,Buxton ,2571,164,7,np,961,Primary School,Not Selective,N,Comprehensive,Kinder to Year 6,,N,N,N,Coed,4681 8229,buxton-p.school@det.nsw.edu.au,4681 0429,N,1894-04-01,Wollondilly (A),Wollondilly,Hume,Ultimo,Wollondilly,South Western Sydney,South Western Sydney,Dharawal,Inner Regional Australia,-34.246971,150.544826,7/3/17
1470,9903,Byron Bay Public School,17 Kingsley St,Byron Bay ,2481,667,2,16,1062,Primary School,Not Selective,N,Comprehensive,Kinder to Year 6,,N,N,N,Coed,6685 6557,byronbay-p.school@det.nsw.edu.au,6685 8625,N,1892-08-01,Byron (A),Ballina,Richmond,Tamworth & Coffs Harbour,Lismore,Mid North Coast & Northern NSW,Northern NSW,Upper North Coast,Inner Regional Australia,-28.647416,153.614826,7/3/17
1471,9762,Cabbage Tree Island Public School,Cabbage Tree Island Rd,Cabbage Tree Island,2477,14,100,0,,Primary School,Not Selective,N,Comprehensive,Kinder to Year 6,,N,N,N,Coed,6683 4251,cabbagetre-p.school@det.nsw.edu.au,6683 4369,N,1893-10-01,Ballina (A),Ballina,Page,Tamworth & Coffs Harbour,Richmond Valley,Mid North Coast & Northern NSW,Northern NSW,Upper North Coast,Inner Regional Australia,-28.98367,153.457788,7/3/17
1472,8163,Cabramatta Public School,Levuka St,Cabramatta ,2166,727,np,95,933,Primary School,Not Selective,N,Comprehensive,Kinder to Year 6,,N,N,N,Coed,9724 1534,cabramatta-p.school@det.nsw.edu.au,9728 2249,N,1897-07-01,Fairfield (C),Cabramatta,Fowler,Ultimo,Fairfield,South Western Sydney,South Western Sydney,Metropolitan South West,Major Cities of Australia,-33.895823,150.942629,7/3/17
1481,10068,Cambewarra Public School,Kalinga St,Cambewarra ,2540,307,10,6,1008,Primary School,Not Selective,N,Comprehensive,Kinder to Year 6,,N,N,N,Coed,4446 0038,cambewarra-p.school@det.nsw.edu.au,4446 0515,N,1859-06-01,Shoalhaven (C),Kiama,Gilmore,Dubbo & Wagga Wagga,South Coast,Illawarra Shoalhaven & Southern NSW,Illawarra Shoalhaven,Upper South Coast,Inner Regional Australia,-34.821537,150.556043,7/3/17
1482,10220,Camden Public School,John St,Camden ,2570,295,4,7,1027,Primary School,Not Selective,N,Comprehensive,Kinder to Year 6,,N,N,N,Coed,4655 8049,camden-p.school@det.nsw.edu.au,4655 3269,N,1849-10-01,Camden (A),Camden,Hume,Ultimo,Macarthur,South Western Sydney,South Western Sydney,Dharawal,Major Cities of Australia,-34.051998,150.693236,7/3/17
1483,7591,Camdenville Public School,Laura St,Newtown ,2042,256,4,27,1098,Primary School,Not Selective,N,Comprehensive,Kinder to Year 6,,Y,N,N,Coed,9557 5505,camdenvill-p.school@det.nsw.edu.au,9550 4605,N,1882-06-01,Marrickville (A),Newtown,Grayndler,Ultimo,Marrickville,"South Eastern Sydney, Northern Sydney & Sydney",Sydney,Metropolitan East,Major Cities of Australia,-33.906146,151.175741,7/3/17
1485,7611,Cammeray Public School,Palmer St,Cammeray ,2062,956,np,25,1184,Primary School,Not Selective,N,Comprehensive,Kinder to Year 6,,N,N,N,Coed,9955 7200,cammeray-p.school@det.nsw.edu.au,9957 4693,N,1/1/15,North Sydney (A),Willoughby,North Sydney,Macquarie Park,North Sydney,"South Eastern Sydney, Northern Sydney & Sydney",Northern Sydney,Metropolitan North,Major Cities of Australia,-33.820422,151.211542,7/3/17
1486,10203,Campbelltown Public School,Lithgow St,Campbelltown ,2560,322,6,36,953,Primary School,Not Selective,N,Comprehensive,Kinder to Year 6,,N,N,N,Coed,4625 1581,campbellto-p.school@det.nsw.edu.au,4628 5031,N,1876-01-01,Campbelltown (C),Campbelltown,Macarthur,Ultimo,Campbelltown,South Western Sydney,South Western Sydney,Dharawal,Major Cities of Australia,-34.070109,150.815634,7/3/17
1488,8564,Campsie Public School,Evaline St,Campsie,2194,760,np,97,1022,Primary School,Not Selective,N,Comprehensive,Kinder to Year 6,,N,N,N,Coed,9718 3083,campsie-p.school@det.nsw.edu.au,9718 8007,N,1/8/08,Canterbury (C),Canterbury,Watson,Ultimo,Strathfield,"South Eastern Sydney, Northern Sydney & Sydney",Sydney,Metropolitan South West,Major Cities of Australia,-33.911863,151.104846,7/3/17
1490,10186,Candelo Public School,William St,Candelo ,2550,65,np,np,959,Primary School,Not Selective,N,Comprehensive,Kinder to Year 6,,N,N,N,Coed,6493 2236,candelo-p.school@det.nsw.edu.au,6493 2035,N,1869-01-01,Bega Valley (A),Bega,Eden-Monaro,Dubbo & Wagga Wagga,Far South Coast,Illawarra Shoalhaven & Southern NSW,Southern NSW,Lower South Coast,Outer Regional Australia,-36.768392,149.695674,7/3/17
1492,9783,Caniaba Public School,Caniaba Rd,Lismore ,2480,76,np,np,990,Primary School,Not Selective,N,Comprehensive,Kinder to Year 6,,N,N,N,Coed,6621 4309,caniaba-p.school@det.nsw.edu.au,6622 0260,N,1/5/12,Lismore (C),Lismore,Page,Tamworth & Coffs Harbour,Lismore,Mid North Coast & Northern NSW,Northern NSW,Upper North Coast,Inner Regional Australia,-28.830799,153.231317,7/3/17
1494,8517,Canley Vale Public School,Canley Vale Rd,Canley Vale ,2166,858,np,96,945,Primary School,Not Selective,N,Comprehensive,Kinder to Year 6,,Y,N,N,Coed,9724 1555,canleyvale-p.school@det.nsw.edu.au,9728 1792,N,1884-08-01,Fairfield (C),Fairfield,Fowler,Ultimo,Fairfield,South Western Sydney,South Western Sydney,Metropolitan South West,Major Cities of Australia,-33.88676,150.937632,7/3/17
1495,11004,Canobolas Public School,Canobolas Rd,Orange ,2800,109,6,6,1040,Primary School,Not Selective,N,Comprehensive,Kinder to Year 6,,N,N,N,Coed,6365 3282,canobolas-p.school@det.nsw.edu.au,6365 3146,N,1864-01-01,Orange (C),Orange,Calare,Dubbo & Wagga Wagga,Orange,"Murrumbidgee, Far West & Western NSW",Western NSW,Western 1,Inner Regional Australia,-33.305942,149.04621,7/3/17
1497,8561,Canterbury Public School,Church St,Canterbury ,2193,307,4,57,1066,Primary School,Not Selective,N,Comprehensive,Kinder to Year 6,,N,N,N,Coed,9718 2884,canterbury-p.school@det.nsw.edu.au,9718 0725,N,1878-03-01,Canterbury (C),Canterbury,Watson,Ultimo,Canterbury,"South Eastern Sydney, Northern Sydney & Sydney",Sydney,Metropolitan East,Major Cities of Australia,-33.908761,151.122306,7/3/17
1498,8671,Brisbania Public School,1 High Street,Saratoga,2251,458,3,7,1026,Primary School,Not Selective,N,Comprehensive,Kinder to Year 6,,N,N,N,Coed,4369 1246,brisbania-p.school@det.nsw.edu.au,4363 1068,N,1/9/41,Gosford (C),Terrigal,Robertson,Macquarie Park,Gosford,Hunter New England & Central Coast,Central Coast,Central Coast,Major Cities of Australia,-33.478822,151.357294,7/3/17
1499,10506,Uranquinty Public School,Pearson Street,Uranquinty,2652,31,np,0,960,Primary School,Not Selective,N,Comprehensive,Kinder to Year 6,,N,N,N,Coed,69229619,uranquinty-p.school@det.nsw.edu.au,69229883,N,1880-07-01,Wagga Wagga (C),Wagga Wagga,Riverina,Dubbo & Wagga Wagga,Wagga Wagga,"Murrumbidgee, Far West & Western NSW",Murrumbidgee,Riverina 1,Inner Regional Australia,-35.188793,147.249486,7/3/17
1501,11069,Capertee Public School,Castlereagh Hwy,Capertee ,2846,14,0,0,1089,Primary School,Not Selective,N,Comprehensive,Kinder to Year 6,,N,N,N,Coed,6359 0175,capertee-p.school@det.nsw.edu.au,6359 0115,N,1882-04-01,Lithgow (C),Bathurst,Calare,Dubbo & Wagga Wagga,Bathurst,Western Sydney & Nepean Blue Mountains,Nepean Blue Mountains,Western 1,Inner Regional Australia,-33.147074,149.985922,7/3/17
1502,10414,Captains Flat Public School,14 Montgomery St,Captains Flat,2623,40,np,np,940,Primary School,Not Selective,N,Comprehensive,Kinder to Year 6,,N,N,N,Coed,6236 6253,captainsfl-p.school@det.nsw.edu.au,6236 6390,N,1884-07-01,Palerang (A),Monaro,Eden-Monaro,Dubbo & Wagga Wagga,Queanbeyan,Illawarra Shoalhaven & Southern NSW,Southern NSW,Upper South Coast,Inner Regional Australia,-35.587192,149.450147,7/3/17
1503,11025,Caragabal Public School,Marsden & Wheoga Sts,Caragabal ,2810,26,np,0,1013,Primary School,Not Selective,N,Comprehensive,Kinder to Year 6,,N,N,N,Coed,6347 5225,caragabal-p.school@det.nsw.edu.au,6347 5214,N,1/2/07,Weddin (A),Cootamundra,Riverina,Dubbo & Wagga Wagga,Lachlan,"Murrumbidgee, Far West & Western NSW",Western NSW,Western 1,Outer Regional Australia,-33.84532,147.744452,7/3/17
1504,10966,Carcoar Public School,Icely St,Carcoar ,2791,10,0,np,1069,Primary School,Not Selective,N,Comprehensive,Kinder to Year 6,,N,N,N,Coed,6367 3032,carcoar-p.school@det.nsw.edu.au,6367 3062,N,1857-09-01,Blayney (A),Bathurst,Calare,Dubbo & Wagga Wagga,Orange,"Murrumbidgee, Far West & Western NSW",Western NSW,Western 1,Inner Regional Australia,-33.612326,149.142432,7/3/17
1505,9003,Cardiff Public School,Macquarie Rd,Cardiff ,2285,217,9,5,967,Primary School,Not Selective,N,Comprehensive,Kinder to Year 6,,N,N,N,Coed,4954 0475,cardiff-p.school@det.nsw.edu.au,4956 5436,N,1891-07-01,Lake Macquarie (C),Lake Macquarie,Shortland,Tamworth & Coffs Harbour,Lake Macquarie East,Hunter New England & Central Coast,Hunter New England,Hunter,Major Cities of Australia,-32.945779,151.657754,7/3/17
1506,11005,Cargo Public School,Hutton St,Cargo ,2800,19,np,0,889,Primary School,Not Selective,N,Comprehensive,Kinder to Year 6,,N,N,N,Coed,6364 3093,cargo-p.school@det.nsw.edu.au,6364 3092,N,1871-10-01,Cabonne (A),Orange,Calare,Dubbo & Wagga Wagga,Orange,"Murrumbidgee, Far West & Western NSW",Western NSW,Western 1,Outer Regional Australia,-33.427612,148.807697,7/3/17
1507,11046,Carinda Public School,Macnamara St,Carinda ,2831,17,0,0,998,Primary School,Not Selective,N,Comprehensive,Kinder to Year 6,,N,N,N,Coed,6823 2235,carinda-p.school@det.nsw.edu.au,6823 2208,Y,1895-01-01,Walgett (A),Barwon,Parkes,Dubbo & Wagga Wagga,Western Plains,"Murrumbidgee, Far West & Western NSW",Western NSW,Western 2,Remote Australia,-30.461882,147.687555,7/3/17
1508,8651,Caringbah Public School,Port Hacking Rd,Caringbah ,2229,258,np,18,1069,Primary School,Not Selective,N,Comprehensive,Kinder to Year 6,,N,N,N,Coed,9524 7217,caringbah-p.school@det.nsw.edu.au,9540 3655,N,1/5/25,Sutherland Shire (A),Cronulla,Cook,Ultimo,Port Hacking,"South Eastern Sydney, Northern Sydney & Sydney",South Eastern Sydney,Metropolitan East,Major Cities of Australia,-34.053433,151.122988,7/3/17
1512,8594,Carlton Public School,60 Cameron St,Bexley ,2207,870,np,92,1051,Primary School,Not Selective,N,Comprehensive,Kinder to Year 6,,N,N,N,Coed,9587 3717,carlton-p.school@det.nsw.edu.au,9553 8307,N,1/6/18,Rockdale (C),Kogarah,Barton,Ultimo,Georges River,"South Eastern Sydney, Northern Sydney & Sydney",South Eastern Sydney,Metropolitan East,Major Cities of Australia,-33.963496,151.12246,7/3/17
1513,8629,Carlton South Public School,Jubilee Ave,Carlton ,2218,606,1,75,1073,Primary School,Not Selective,N,Comprehensive,Kinder to Year 6,,N,N,N,Coed,9587 5235,carltonsth-p.school@det.nsw.edu.au,9553 8308,N,1/8/22,Kogarah (C),Kogarah,Banks,Ultimo,Georges River,"South Eastern Sydney, Northern Sydney & Sydney",South Eastern Sydney,Metropolitan East,Major Cities of Australia,-33.973045,151.128287,7/3/17
1515,5504,Carool Public School,411 Carool Rd,Carool,2486,14,0,np,980,Primary School,Not Selective,N,Comprehensive,Kinder to Year 6,,N,N,N,Coed,07 5590 9876,carool-p.school@det.nsw.edu.au,07 5590 7207,N,1/5/22,Tweed (A),Tweed,Richmond,Tamworth & Coffs Harbour,Tweed,Mid North Coast & Northern NSW,Northern NSW,Upper North Coast,Inner Regional Australia,-28.229959,153.4293,7/3/17
1517,22736,Carrathool Public School,Glover St,Carrathool,2711,7,np,np,918,Primary School,Not Selective,N,Comprehensive,Kinder to Year 6,,N,N,N,Coed,6993 5143,Carrathool-p.school@det.nsw.edu.au,02 6993 5002,N,1883-05-01,Carrathool (A),Murray,Farrer,Dubbo & Wagga Wagga,Deniliquin,"Murrumbidgee, Far West & Western NSW",Murrumbidgee,Riverina 2 ,Outer Regional Australia,-34.409166,145.431622,7/3/17
1518,9108,Carrington Public School,Young St,Carrington ,2294,99,11,16,977,Primary School,Not Selective,N,Comprehensive,Kinder to Year 6,,N,N,N,Coed,4969 3707,carrington-p.school@det.nsw.edu.au,4961 6860,N,1873-08-01,Newcastle (C),Newcastle,Newcastle,Tamworth & Coffs Harbour,Newcastle,Hunter New England & Central Coast,Hunter New England,Hunter,Major Cities of Australia,-32.912446,151.765328,7/3/17
1520,9344,Carroll Public School,David St,Carroll ,2340,21,62,0,766,Primary School,Not Selective,N,Comprehensive,Kinder to Year 6,,N,N,N,Coed,6743 1722,carroll-p.school@det.nsw.edu.au,6743 1800,N,1869-01-01,Gunnedah (A),Tamworth,Parkes,Tamworth & Coffs Harbour,Wollemi,Hunter New England & Central Coast,Hunter New England,North Western 1,Outer Regional Australia,-30.986074,150.447096,7/3/17
1526,9732,Casino Public School,31 Walker St,Casino ,2470,685,20,np,883,Primary School,Not Selective,N,Comprehensive,Kinder to Year 6,,Y,N,N,Coed,6662 1113,casino-p.school@det.nsw.edu.au,6662 2230,N,1861-03-01,Richmond Valley (A),Clarence,Page,Tamworth & Coffs Harbour,Clarence Valley,Mid North Coast & Northern NSW,Northern NSW,Upper North Coast,Inner Regional Australia,-28.867384,153.048053,7/3/17
1527,9312,Cassilis Public School,Coolah Rd,Cassilis,2329,16,0,0,911,Primary School,Not Selective,N,Comprehensive,Kinder to Year 6,,N,N,N,Coed,6376 1009,cassilis-p.school@det.nsw.edu.au,6376 1005,N,1875-09-01,Upper Hunter Shire (A),Upper Hunter,New England,Tamworth & Coffs Harbour,Wollemi,Hunter New England & Central Coast,Hunter New England,Hunter,Outer Regional Australia,-32.004552,149.978075,7/3/17
1529,7865,Castle Hill Public School,Les Shore Place,Castle Hill ,2154,920,np,59,1114,Primary School,Not Selective,N,Comprehensive,Kinder to Year 6,,N,N,N,Coed,9634 3777,castlehill-p.school@det.nsw.edu.au,9899 6845,N,1880-07-01,The Hills Shire (A),Castle Hill,Mitchell,Macquarie Park,Dural,Western Sydney & Nepean Blue Mountains,Western Sydney,Metropolitan North,Major Cities of Australia,-33.727887,151.004663,7/3/17
1535,10738,Cattai Public School,487 Cattai Rd,Cattai ,2756,58,np,np,996,Primary School,Not Selective,N,Comprehensive,Kinder to Year 6,,N,N,N,Coed,4572 8445,cattai-p.school@det.nsw.edu.au,4572 8760,N,1886-02-01,Hawkesbury (C),Hawkesbury,Macquarie,Macquarie Park,Hawkesbury,Western Sydney & Nepean Blue Mountains,Nepean Blue Mountains,Metropolitan West,Inner Regional Australia,-33.558762,150.906904,7/3/17
1537,10222,Cawdor Public School,865 Cawdor Rd,Camden ,2570,76,9,np,983,Primary School,Not Selective,N,Comprehensive,Kinder to Year 6,,N,N,N,Coed,4636 6133,cawdor-p.school@det.nsw.edu.au,4636 6365,N,1858-06-01,Wollondilly (A),Wollondilly,Hume,Ultimo,Wollondilly,South Western Sydney,South Western Sydney,Dharawal,Major Cities of Australia,-34.109711,150.673727,7/3/17
1542,9278,Cessnock Public School,Rawson St,Cessnock ,2325,296,21,2,886,Primary School,Not Selective,N,Comprehensive,Kinder to Year 6,,N,N,N,Coed,4990 1652,cessnock-p.school@det.nsw.edu.au,4991 1782,N,1859-07-01,Cessnock (C),Cessnock,Hunter,Tamworth & Coffs Harbour,Hunter,Hunter New England & Central Coast,Hunter New England,Hunter,Inner Regional Australia,-32.840405,151.363808,7/3/17
1543,9053,Cessnock East Public School,Old Maitland Rd,Cessnock ,2325,229,26,np,858,Primary School,Not Selective,N,Comprehensive,Kinder to Year 6,,N,N,N,Coed,4990 1549,cessnocke-p.school@det.nsw.edu.au,4991 1552,N,1/5/28,Cessnock (C),Cessnock,Hunter,Tamworth & Coffs Harbour,Hunter,Hunter New England & Central Coast,Hunter New England,Hunter,Inner Regional Australia,-32.827606,151.369746,7/3/17
1545,9281,Cessnock West Public School,Wollombi & Campbell Sts,Cessnock ,2325,393,16,2,913,Primary School,Not Selective,Y,Comprehensive,Kinder to Year 6,,N,N,N,Coed,4990 1637,cessnockw-p.school@det.nsw.edu.au,4991 1523,N,1/8/22,Cessnock (C),Cessnock,Hunter,Tamworth & Coffs Harbour,Hunter,Hunter New England & Central Coast,Hunter New England,Hunter,Inner Regional Australia,-32.838387,151.344863,7/3/17
1547,9375,Chandler Public School,Grafton Rd,Wollomombi,2350,22,np,0,939,Primary School,Not Selective,N,Comprehensive,Kinder to Year 6,,N,N,N,Coed,6778 1335,chandler-p.school@det.nsw.edu.au,6778 1240,N,1881-05-01,Armidale Dumaresq (A),Northern Tablelands,New England,Tamworth & Coffs Harbour,Northern Tablelands,Hunter New England & Central Coast,Hunter New England,North Western 2,Outer Regional Australia,-30.518553,152.053551,7/3/17
1548,9839,The Channon Public School,Standing St,The Channon ,2480,45,np,15,1091,Primary School,Not Selective,N,Comprehensive,Kinder to Year 6,,N,N,N,Coed,6688 6236,thechannon-p.school@det.nsw.edu.au,6688 6273,N,1/1/09,Lismore (C),Lismore,Page,Tamworth & Coffs Harbour,Richmond Valley,Mid North Coast & Northern NSW,Northern NSW,Upper North Coast,Inner Regional Australia,-28.675099,153.280288,7/3/17
1550,9050,Charlestown Public School,Frederick St,Charlestown ,2290,139,7,24,998,Primary School,Not Selective,N,Comprehensive,Kinder to Year 6,,N,N,N,Coed,4943 4063,charlestow-p.school@det.nsw.edu.au,4942 2583,N,1879-04-01,Lake Macquarie (C),Charlestown,Shortland,Tamworth & Coffs Harbour,Lake Macquarie East,Hunter New England & Central Coast,Hunter New England,Hunter,Major Cities of Australia,-32.965494,151.697486,7/3/17
1551,16257,Pacific Palms Public School,Boomerang Drive,Boomerang Beach ,2428,324,6,6,1004,Primary School,Not Selective,N,Comprehensive,Kinder to Year 6,,N,N,N,Coed,6554 0249,pacificpal-p.school@det.nsw.edu.au,6554 0642,N,1/5/37,Great Lakes (A),Myall Lakes,Lyne,Tamworth & Coffs Harbour,Great Lakes,Hunter New England & Central Coast,Hunter New England,Manning,Inner Regional Australia,-32.341023,152.539306,7/3/17
1553,9707,Chatsworth Island Public School,Chatsworth Island Rd,Chatsworth,2469,64,np,np,1002,Primary School,Not Selective,N,Comprehensive,Kinder to Year 6,,N,N,N,Coed,6646 4346,chatsworth-p.school@det.nsw.edu.au,6646 4160,N,1868-05-01,Clarence Valley (A),Clarence,Page,Tamworth & Coffs Harbour,Clarence Valley,Mid North Coast & Northern NSW,Northern NSW,Upper North Coast,Inner Regional Australia,-29.387954,153.231645,7/3/17
1558,9912,Chillingham Public School,1420 Numinbah Rd,Chillingham ,2484,40,np,np,923,Primary School,Not Selective,N,Comprehensive,Kinder to Year 6,,N,N,N,Coed,6679 1255,chillingha-p.school@det.nsw.edu.au,6679 1207,N,1/2/04,Tweed (A),Lismore,Richmond,Tamworth & Coffs Harbour,Tweed,Mid North Coast & Northern NSW,Northern NSW,Upper North Coast,Inner Regional Australia,-28.311937,153.275569,7/3/17
1560,8534,Chipping Norton Public School,Central Ave,Chipping Norton ,2170,333,3,60,1020,Primary School,Not Selective,N,Comprehensive,Kinder to Year 6,,N,N,N,Coed,9724 1565,chippingno-p.school@det.nsw.edu.au,9755 1324,N,1/5/20,Liverpool (C),Holsworthy,Fowler,Ultimo,Glenfield,South Western Sydney,South Western Sydney,Metropolitan South West,Major Cities of Australia,-33.909108,150.96085,7/3/17
1564,9164,Clarence Town Public School,Queen St,Clarence Town ,2321,126,11,0,932,Primary School,Not Selective,N,Comprehensive,Kinder to Year 6,,N,N,N,Coed,4996 4156,clarenceto-p.school@det.nsw.edu.au,4996 4392,N,1849-09-01,Dungog (A),Upper Hunter,Lyne,Tamworth & Coffs Harbour,Maitland,Hunter New England & Central Coast,Hunter New England,Hunter,Inner Regional Australia,-32.588731,151.777207,7/3/17
1566,8588,Clemton Park Public School,185 Bexley Rd,Earlwood,2206,587,3,79,1050,Primary School,Not Selective,N,Comprehensive,Kinder to Year 6,,N,N,N,Coed,9718 4483,clemtonpk-p.school@det.nsw.edu.au,9718 8703,N,1/1/29,Canterbury (C),Canterbury,Barton,Ultimo,Canterbury,"South Eastern Sydney, Northern Sydney & Sydney",Sydney,Metropolitan East,Major Cities of Australia,-33.929708,151.108423,7/3/17
1573,5317,Clovelly Public School,Arden St,Waverley ,2024,582,np,18,1163,Primary School,Not Selective,N,Comprehensive,Kinder to Year 6,,N,N,N,Coed,9665 6710,clovelly-p.school@det.nsw.edu.au,9664 2613,N,1897-04-01,Waverley (A),Coogee,Wentworth,Ultimo,Botany Bay,"South Eastern Sydney, Northern Sydney & Sydney",South Eastern Sydney,Metropolitan East,Major Cities of Australia,-33.907431,151.26028,7/3/17
1574,9785,Clunes Public School,Walker St,Clunes ,2480,87,np,12,1061,Primary School,Not Selective,N,Comprehensive,Kinder to Year 6,,N,N,N,Coed,6629 1278,clunes-p.school@det.nsw.edu.au,6629 1040,N,1883-04-01,Lismore (C),Lismore,Page,Tamworth & Coffs Harbour,Lismore,Mid North Coast & Northern NSW,Northern NSW,Upper North Coast,Inner Regional Australia,-28.724778,153.408852,7/3/17
1578,11059,Cobar Public School,6-8 Blakey St,Cobar ,2835,257,28,5,915,Primary School,Not Selective,N,Comprehensive,Kinder to Year 6,,N,N,N,Coed,6836 2039,cobar-p.school@det.nsw.edu.au,6836 2187,Y,1878-03-01,Cobar (A),Barwon,Parkes,Dubbo & Wagga Wagga,Lachlan,"Murrumbidgee, Far West & Western NSW",Western NSW,Western 2,Remote Australia,-31.502199,145.836609,7/3/17
1579,10179,Cobargo Public School,Wandella Rd,Cobargo,2550,74,11,np,948,Primary School,Not Selective,N,Comprehensive,Kinder to Year 6,,N,N,N,Coed,6493 6482,cobargo-p.school@det.nsw.edu.au,6493 6410,N,1871-02-01,Bega Valley (A),Bega,Eden-Monaro,Dubbo & Wagga Wagga,Far South Coast,Illawarra Shoalhaven & Southern NSW,Southern NSW,Lower South Coast,Outer Regional Australia,-36.386942,149.882818,7/3/17
1580,10223,Cobbitty Public School,Cobbitty Rd,Cobbitty ,2570,250,6,18,1028,Primary School,Not Selective,N,Comprehensive,Kinder to Year 6,,N,N,N,Coed,4651 2262,cobbitty-p.school@det.nsw.edu.au,4651 2686,N,1882-07-01,Camden (A),Camden,Hume,Ultimo,Macarthur,South Western Sydney,South Western Sydney,Dharawal,Major Cities of Australia,-34.0159,150.685938,7/3/17
1583,9786,Coffee Camp Public School,Nimbin Rd,Coffee Camp ,2480,63,14,21,1033,Primary School,Not Selective,N,Comprehensive,Kinder to Year 6,,N,N,N,Coed,6689 9259,coffeecamp-p.school@det.nsw.edu.au,6689 9363,N,1/6/10,Lismore (C),Lismore,Page,Tamworth & Coffs Harbour,Richmond Valley,Mid North Coast & Northern NSW,Northern NSW,Upper North Coast,Inner Regional Australia,-28.662664,153.220638,7/3/17
1584,9655,Coffs Harbour Public School,7 Salamander Street,Coffs Harbour,2450,428,24,27,880,Primary School,Not Selective,N,Comprehensive,Kinder to Year 6,,N,N,N,Coed,6652 3355,coffsharb-p.school@det.nsw.edu.au,6651 3991,N,1885-03-01,Coffs Harbour (C),Coffs Harbour,Cowper,Tamworth & Coffs Harbour,Coffs Harbour,Mid North Coast & Northern NSW,Mid North Coast,Lower North Coast,Inner Regional Australia,-30.30196,153.120372,7/3/17
1587,9983,Coledale Public School,Lawrence Hargrave Drive,Coledale ,2515,141,np,8,1112,Primary School,Not Selective,N,Comprehensive,Kinder to Year 6,,N,N,N,Coed,4267 1885,coledale-p.school@det.nsw.edu.au,4268 1438,N,1/6/12,Wollongong (C),Keira,Cunningham,Dubbo & Wagga Wagga,Wollongong North,Illawarra Shoalhaven & Southern NSW,Illawarra Shoalhaven,Upper South Coast,Major Cities of Australia,-34.289546,150.947366,7/3/17
1589,6403,Collarenebri Central School,High St,Collarenebri,2833,87.4,75,np,643,Central/Community School,Not Selective,N,Comprehensive,Kinder to Year 12,,N,N,N,Coed,6756 2204,collareneb-c.school@det.nsw.edu.au,6756 2260,Y,1885-02-01,Walgett (A),Barwon,Parkes,Tamworth & Coffs Harbour,Barwon,"Murrumbidgee, Far West & Western NSW",Western NSW,North Western 1,Remote Australia,-29.543823,148.578086,7/3/17
1590,10273,Collector Public School,Lorn St,Collector,2581,28,0,np,1041,Primary School,Not Selective,N,Comprehensive,Kinder to Year 6,,N,N,N,Coed,4848 0024,collector-p.school@det.nsw.edu.au,4848 0102,N,1866-05-01,Upper Lachlan Shire (A),Goulburn,Hume,Dubbo & Wagga Wagga,Queanbeyan,Illawarra Shoalhaven & Southern NSW,Southern NSW,Upper South Coast,Inner Regional Australia,-34.914221,149.433144,7/3/17
1591,10495,Collingullie Public School,Urana St,Collingullie ,2652,28,np,0,995,Primary School,Not Selective,N,Comprehensive,Kinder to Year 6,,N,N,N,Coed,6920 0165,collingull-p.school@det.nsw.edu.au,6920 0288,N,1878-07-01,Wagga Wagga (C),Wagga Wagga,Riverina,Dubbo & Wagga Wagga,Wagga Wagga,"Murrumbidgee, Far West & Western NSW",Murrumbidgee,Riverina 1,Inner Regional Australia,-35.09019,147.127156,7/3/17
1593,9752,Collins Creek Public School,480 Collins Valley Road,Collins Creek ,2474,14,0,np,1076,Primary School,Not Selective,N,Comprehensive,Kinder to Year 6,,N,N,N,Coed,6633 1278,collinsck-p.school@det.nsw.edu.au,6633 1331,N,1/9/18,Kyogle (A),Lismore,Page,Tamworth & Coffs Harbour,Richmond Valley,Mid North Coast & Northern NSW,Northern NSW,Upper North Coast,Inner Regional Australia,-28.489297,153.022547,7/3/17
1596,10796,Colyton Public School,Nelson St,Mount Druitt ,2770,728,2,67,1000,Primary School,Not Selective,Y,Comprehensive,Kinder to Year 6,,N,N,N,Coed,9625 8185,colyton-p.school@det.nsw.edu.au,9832 2403,N,1861-09-01,Blacktown (C),Mount Druitt,Chifley,Macquarie Park,Eastern Creek,Western Sydney & Nepean Blue Mountains,Western Sydney,Metropolitan West,Major Cities of Australia,-33.777199,150.81316,7/3/17
1601,9540,Comboyne Public School,Hill St,Comboyne ,2429,28,np,0,905,Primary School,Not Selective,N,Comprehensive,Kinder to Year 6,,N,N,N,Coed,6550 4174,comboyne-p.school@det.nsw.edu.au,6550 4002,N,1/4/22,Port Macquarie-Hastings (A),Oxley,Lyne,Tamworth & Coffs Harbour,Hastings,Mid North Coast & Northern NSW,Mid North Coast,Lower North Coast,Outer Regional Australia,-31.605308,152.472736,7/3/17
1604,10762,Comleroy Road Public School,McMahons Rd,Kurrajong,2758,136,np,7,1010,Primary School,Not Selective,N,Comprehensive,Kinder to Year 6,,N,N,N,Coed,4576 1600,comleroyrd-p.school@det.nsw.edu.au,4576 1620,N,1880-07-01,Hawkesbury (C),Hawkesbury,Macquarie,Macquarie Park,Hawkesbury,Western Sydney & Nepean Blue Mountains,Nepean Blue Mountains,Metropolitan West,Inner Regional Australia,-33.506475,150.69763,7/3/17
1605,4400,Como Public School,Genoa St,Como ,2226,101,7,22,1076,Primary School,Not Selective,N,Comprehensive,Kinder to Year 6,,N,N,N,Coed,9528 9003,como-p.school@det.nsw.edu.au,9528 3407,N,1/1/21,Sutherland Shire (A),Miranda,Hughes,Ultimo,Woronora River,"South Eastern Sydney, Northern Sydney & Sydney",South Eastern Sydney,Metropolitan East,Major Cities of Australia,-34.001832,151.069127,7/3/17
1606,10622,Conargo Public School,Deniliquin-Wagga Wagga Rd,Conargo ,2710,22,np,0,963,Primary School,Not Selective,N,Comprehensive,Kinder to Year 6,,N,N,N,Coed,03 5884 6624,conargo-p.school@det.nsw.edu.au,03 5884 6736,Y,1879-03-01,Conargo (A),Murray,Farrer,Dubbo & Wagga Wagga,Deniliquin,"Murrumbidgee, Far West & Western NSW",Murrumbidgee,Riverina 2 ,Outer Regional Australia,-35.305269,145.17886,7/3/17
1607,7782,Concord Public School,Burwood Rd,Concord ,2137,275,np,65,1074,Primary School,Not Selective,N,Comprehensive,Kinder to Year 6,,N,N,N,Coed,9744 8427,concord-p.school@det.nsw.edu.au,9744 5187,N,1880-01-01,Canada Bay (A),Drummoyne,Reid,Ultimo,Strathfield,"South Eastern Sydney, Northern Sydney & Sydney",Sydney,Metropolitan South West,Major Cities of Australia,-33.863224,151.106944,7/3/17
1608,7786,Concord West Public School,Concord Rd,Concord West ,2138,389,0,73,1107,Primary School,Not Selective,N,Comprehensive,Kinder to Year 6,,N,N,N,Coed,9743 1580,concordw-p.school@det.nsw.edu.au,9743 6606,N,1/11/29,Canada Bay (A),Drummoyne,Reid,Ultimo,Strathfield,"South Eastern Sydney, Northern Sydney & Sydney",Sydney,Metropolitan South West,Major Cities of Australia,-33.839613,151.087317,7/3/17
1609,11106,Condobolin Public School,Molong Street,Condobolin,2877,271,47,np,818,Primary School,Not Selective,N,Comprehensive,Kinder to Year 6,,N,N,N,Coed,6895 2134,condobolin-p.school@det.nsw.edu.au,6895 3665,Y,1867-10-01,Lachlan (A),Barwon,Parkes,Dubbo & Wagga Wagga,Lachlan,"Murrumbidgee, Far West & Western NSW",Western NSW,Western 1,Outer Regional Australia,-33.085514,147.149077,7/3/17
1611,9913,Condong Public School,McLeod St,Condong ,2484,59,10,np,965,Primary School,Not Selective,N,Comprehensive,Kinder to Year 6,,N,N,N,Coed,6672 2390,condong-p.school@det.nsw.edu.au,6672 5535,N,1888-05-01,Tweed (A),Tweed,Richmond,Tamworth & Coffs Harbour,Tweed,Mid North Coast & Northern NSW,Northern NSW,Upper North Coast,Inner Regional Australia,-28.309674,153.434424,7/3/17
1612,9936,Coniston Public School,Auburn St,Coniston ,2500,208,7,48,973,Primary School,Not Selective,N,Comprehensive,Kinder to Year 6,,N,N,N,Coed,4229 1117,coniston-p.school@det.nsw.edu.au,4226 5094,N,1/7/21,Wollongong (C),Wollongong,Cunningham,Dubbo & Wagga Wagga,Wollongong North,Illawarra Shoalhaven & Southern NSW,Illawarra Shoalhaven,Upper South Coast,Major Cities of Australia,-34.439023,150.887435,7/3/17
1613,8632,Connells Point Public School,Riverview Ave,South Hurstville,2221,515,np,70,1103,Primary School,Not Selective,N,Comprehensive,Kinder to Year 6,,N,N,N,Coed,9546 1730,connellspt-p.school@det.nsw.edu.au,9547 1708,N,1/8/34,Kogarah (C),Oatley,Banks,Ultimo,Port Hacking,"South Eastern Sydney, Northern Sydney & Sydney",South Eastern Sydney,Metropolitan East,Major Cities of Australia,-33.984689,151.100306,7/3/17
1615,10960,Cooerwull Public School,319 Main St,Lithgow ,2790,328,19,7,905,Primary School,Not Selective,N,Comprehensive,Kinder to Year 6,,N,N,N,Coed,6351 3106,cooerwull-p.school@det.nsw.edu.au,6353 1075,N,1867-02-01,Lithgow (C),Bathurst,Calare,Dubbo & Wagga Wagga,Bathurst,Western Sydney & Nepean Blue Mountains,Nepean Blue Mountains,Western 1,Inner Regional Australia,-33.484053,150.142093,7/3/17
1616,7053,Coogee Public School,Byron St & Coogee Bay Rd,Coogee ,2034,606,1,30,1152,Primary School,Not Selective,N,Comprehensive,Kinder to Year 6,,N,N,N,Coed,9315 7255,coogee-p.school@det.nsw.edu.au,9664 2161,N,1876-08-01,Randwick (C),Coogee,Kingsford Smith,Ultimo,Botany Bay,"South Eastern Sydney, Northern Sydney & Sydney",South Eastern Sydney,Metropolitan East,Major Cities of Australia,-33.920819,151.249846,7/3/17
