ageID,head_campus_ageID,school_name,street,town_suburb,postcode,level_of_schooling,school_gender,sector,systemic,school_affiliation,diocese,sys_num,sys_desc,school _specialty_indicator,campus_level,school_url,lga,electorate_code,fed_electorate,SA3,SA4,ASGS_remoteness,latitude,longitude
1302,1302,Abbotsleigh,1666 Pacific Highway,Wahroonga,2076,Combined,Female,Independent,Non-Systemic,Anglican,,0,,Non special,Combined,http://www.abbotsleigh.nsw.edu.au,Ku-ring-gai (A),Ku-ring-gai,Bradfield,Ku-ring-gai,Sydney - North Sydney and Hornsby,Major Cities of Australia,-33.719891,151.111345
1305,1305,All Hallows School,Bayly Street,Gulgong,2852,Primary,Co-ed,Catholic,Systemic,Catholic (Roman),Bathurst,4101,Catholic System NSW,Non special,Primary,http://www.allhallowsgulgong.catholic.edu.au/,Mid-Western Regional (A),Dubbo,Calare,Lithgow - Mudgee,Central West,Outer Regional Australia,-32.36134,149.530965
1306,1306,All Hallows Catholic Primary School,1 Halley St,Five Dock,2046,Primary,Co-ed,Catholic,Systemic,Catholic (Roman),Sydney,4101,Catholic System NSW,Non special,Primary,http://ahpsfivedock.catholic.edu.au,Canada Bay (A),Drummoyne,Reid,Canada Bay,Sydney - Inner West,Major Cities of Australia,-33.860897,151.133872
1307,1307,All Saints College,Ophir Road,Bathurst,2795,Combined,Co-ed,Independent,Non-Systemic,Anglican,,0,,Non special,Combined,http://www.saints.nsw.edu.au,Bathurst Regional (A),Bathurst,Calare,Bathurst,Central West,Inner Regional Australia,-33.399074,149.564889
1309,1309,All Saints Primary School,Murray Street,Tumbarumba,2653,Primary,Co-ed,Catholic,Systemic,Catholic (Roman),Wagga Wagga,4101,Catholic System NSW,Non special,Primary,http://www.asww.catholic.edu.au,Tumbarumba (A),Albury,Eden-Monaro,Tumut - Tumbarumba,Riverina,Outer Regional Australia,-35.775637,148.012444
1311,1311,Arden Anglican School,39-43 Wongala Crescent,Beecroft,2119,Combined,Co-ed,Independent,Non-Systemic,Anglican,,0,,Non special,Primary,http://www.arden.nsw.edu.au,Hornsby (A),Epping,Berowra,Pennant Hills - Epping,Sydney - Ryde,Major Cities of Australia,-33.746393,151.065133
1312,1312,Ascham School Ltd,188 New South Head Rd,Edgecliff,2027,Combined,Female,Independent,Non-Systemic,Non-Denominational,,0,,Non special,Combined,http://www.ascham.nsw.edu.au,Woollahra (A),Vaucluse,Wentworth,Eastern Suburbs - North,Sydney - Eastern Suburbs,Major Cities of Australia,-33.877077,151.236237
1313,1313,The Assumption School,192 Mitre Street,Bathurst West,2795,Primary,Co-ed,Catholic,Systemic,Catholic (Roman),Bathurst,4101,Catholic System NSW,Non special,Primary,http://www.assumption-bathurst.nsw.edu.au,Bathurst Regional (A),Bathurst,Calare,Bathurst,Central West,Inner Regional Australia,-33.411773,149.566954
1319,1319,Bethlehem College,18 Bland Street,Ashfield,2131,Secondary,Female,Catholic,Systemic,Catholic (Roman),Sydney,4101,Catholic System NSW,Non special,Secondary,http://www.bethlehemcollege.nsw.edu.au,Ashfield (A),Summer Hill,Grayndler,Strathfield - Burwood - Ashfield,Sydney - Inner West,Major Cities of Australia,-33.885622,151.124963
1320,1320,Henschke Primary School,105 Fernleigh Road,Wagga Wagga,2650,Primary,Co-ed,Catholic,Systemic,Catholic (Roman),Wagga Wagga,4101,Catholic System NSW,Non special,Primary,http://www.hpww.catholic.edu.au,Wagga Wagga (C),Wagga Wagga,Riverina,Wagga Wagga,Riverina,Inner Regional Australia,-35.131374,147.352069
1321,1321,St Oliver's Primary School,33 Wigram Street,Harris Park,2150,Primary,Co-ed,Catholic,Systemic,Catholic (Roman),Parramatta,4101,Catholic System NSW,Non special,Primary,http://www.stoliversharrispark.catholic.edu.au,Parramatta (C),Parramatta,Parramatta,Parramatta,Sydney - Parramatta,Major Cities of Australia,-33.824516,151.008984
1322,1322,Blessed Sacrament Catholic Primary School,2 Queen Street,Clifton Gardens,2088,Primary,Co-ed,Catholic,Systemic,Catholic (Roman),Sydney,4101,Catholic System NSW,Non special,Primary,http://bscliftongardens.catholic.edu.au,Mosman (A),North Shore,Warringah,North Sydney - Mosman,Sydney - North Sydney and Hornsby,Major Cities of Australia,-33.835101,151.244538
1323,1323,Blue Mountains Grammar School,Matcham Avenue,Wentworth Falls,2782,Combined,Co-ed,Independent,Non-Systemic,Anglican,,0,,Non special,Combined,http://www.bmgs.nsw.edu.au,Blue Mountains (C),Blue Mountains,Macquarie,Blue Mountains,Sydney - Outer West and Blue Mountains,Major Cities of Australia,-33.708454,150.370541
1326,1326,Brigidine College  St Ives,325 Mona Vale Road,St Ives,2075,Secondary,Female,Independent,Non-Systemic,Catholic (Roman),,0,,Non special,Secondary,http://www.brigidine.nsw.edu.au,Ku-ring-gai (A),Davidson,Bradfield,Ku-ring-gai,Sydney - North Sydney and Hornsby,Major Cities of Australia,-33.721615,151.17269
1328,1328,Brigidine College Randwick,Aeolia Street,Randwick,2031,Secondary,Female,Catholic,Systemic,Catholic (Roman),Sydney,4101,Catholic System NSW,Non special,Secondary,http://www.bcrandwick.catholic.edu.au/,Randwick (C),Coogee,Kingsford Smith,Eastern Suburbs - South,Sydney - Eastern Suburbs,Major Cities of Australia,-33.919181,151.243928
1329,1329,St Patrick's Parish School,Vale & Murray Streets,Cooma,2630,Combined,Co-ed,Catholic,Systemic,Catholic (Roman),Canberra-Goulbu,4101,Catholic System NSW,Non special,Secondary,http://www.stpatscooma.nsw.edu.au,Cooma-Monaro (A),Monaro,Eden-Monaro,Snowy Mountains,Capital Region,Inner Regional Australia,-36.238066,149.126353
1331,1331,Catherine McAuley Westmead,Darcy Road,Westmead,2145,Secondary,Female,Catholic,Systemic,Catholic (Roman),Parramatta,4101,Catholic System NSW,Non special,Secondary,http://www.mcauleywestmead.catholic.edu.au,Parramatta (C),Seven Hills,Parramatta,Parramatta,Sydney - Parramatta,Major Cities of Australia,-33.804721,150.984486
1332,1332,Mercy Catholic College,101 Archer St,Chatswood,2067,Secondary,Female,Catholic,Systemic,Catholic (Roman),Broken Bay,4101,Catholic System NSW,Non special,Secondary,http://www.mercydbb.catholic.edu.au,Willoughby (C),Willoughby,Bradfield,Chatswood - Lane Cove,Sydney - North Sydney and Hornsby,Major Cities of Australia,-33.792968,151.184587
1333,1333,Sacred Heart School,Morris Street,Cootamundra,2590,Combined,Co-ed,Catholic,Systemic,Catholic (Roman),Canberra-Goulbu,4101,Catholic System NSW,Non special,Combined,http://www.shcoota.nsw.edu.au,Cootamundra (A),Cootamundra,Riverina,Wagga Wagga,Riverina,Inner Regional Australia,-34.634589,148.030567
1334,1334,Marian Catholic College,185 Wakaden Street,Griffith,2680,Secondary,Co-ed,Catholic,Systemic,Catholic (Roman),Wagga Wagga,4101,Catholic System NSW,Non special,Secondary,http://www.mccww.catholic.edu.au,Griffith (C),Murray,Farrer,Griffith - Murrumbidgee (West),Riverina,Outer Regional Australia,-34.286779,146.058283
1338,1338,Central Coast Adventist School,Penrose Crescent,Erina,2250,Combined,Co-ed,Independent,Systemic,Seventh Day Adventist,,0,SDA System North NSW,Non special,Combined,http://www.ccas.nsw.edu.au,Gosford (C),Terrigal,Robertson,Gosford,Central Coast,Major Cities of Australia,-33.43634,151.38973
1339,1339,Cerdon College,Sherwood Road,Merrylands,2160,Secondary,Female,Catholic,Systemic,Catholic (Roman),Parramatta,4101,Catholic System NSW,Non special,Secondary,http://www.cerdonmerrylands.catholic.edu.au,Holroyd (C),Granville,McMahon,Merrylands - Guildford,Sydney - Parramatta,Major Cities of Australia,-33.837664,150.968322
1340,1340,Chevalier College,11 Charlotte Street,Burradoo,2576,Secondary,Co-ed,Independent,Non-Systemic,Catholic (Roman),,0,,Non special,Secondary,http://www.chevalier.nsw.edu.au,Wingecarribee (A),Wollondilly,Whitlam,Southern Highlands,Southern Highlands and Shoalhaven,Inner Regional Australia,-34.506824,150.405476
1341,1341,Southern Cross Catholic Vocational College,17 Comer Street,Burwood,2134,Secondary,Co-ed,Catholic,Systemic,Catholic (Roman),Sydney,4101,Catholic System NSW,Non special,Secondary,http://www.sccvc.nsw.edu.au,Burwood (A),Strathfield,Reid,Strathfield - Burwood - Ashfield,Sydney - Inner West,Major Cities of Australia,-33.871725,151.103225
1348,1348,Christian Brothers High School,68 The Boulevarde,Lewisham,2049,Combined,Male,Independent,Non-Systemic,Catholic (Roman),,0,,Non special,Combined,http://www.cbhslewisham.nsw.edu.au/,Marrickville (A),Summer Hill,Grayndler,Strathfield - Burwood - Ashfield,Sydney - Inner West,Major Cities of Australia,-33.897142,151.145781
1349,1349,St Mary's Cathedral College,St Mary'S Road,Sydney,2000,Combined,Male,Catholic,Systemic,Catholic (Roman),Sydney,4101,Catholic System NSW,Non special,Combined,http://www.smccsydney.catholic.edu.au,Sydney (C),Sydney,Sydney,Sydney Inner City,Sydney - City and Inner South,Major Cities of Australia,-33.871288,151.213998
1351,1351,St Paul's Catholic College,Darley Road,Manly,2095,Secondary,Male,Catholic,Systemic,Catholic (Roman),Broken Bay,4101,Catholic System NSW,Non special,Secondary,http://www.stpaulsdbb.catholic.edu.au,Manly (A),Manly,Warringah,Manly,Sydney - Northern Beaches,Major Cities of Australia,-33.805199,151.291633
1354,1354,Christ The King Catholic School Bass Hill,2 Cantrell Street,Yagoona,2199,Primary,Co-ed,Catholic,Systemic,Catholic (Roman),Sydney,4101,Catholic System NSW,Non special,Primary,http://ctkbasshill.catholic.edu.au,Bankstown (C),Bankstown,Blaxland,Bankstown,Sydney - Inner South West,Major Cities of Australia,-33.906086,151.012986
1355,1355,Newcastle Grammar School,60 Newcomen St,Newcastle,2300,Combined,Co-ed,Independent,Non-Systemic,Non-Denominational,,0,,Non special,Combined,http://www.ngs.nsw.edu.au,Newcastle (C),Newcastle,Newcastle,Newcastle,Newcastle and Lake Macquarie,Major Cities of Australia,-32.929914,151.780162
1356,1356,Claremont College,30-32 Coogee Bay Road,Randwick,2031,Primary,Co-ed,Independent,Systemic,Anglican,,16718,Anglican Schools System Sydney,Non special,Primary,http://www.claremont.nsw.edu.au,Randwick (C),Coogee,Kingsford Smith,Eastern Suburbs - South,Sydney - Eastern Suburbs,Major Cities of Australia,-33.918233,151.244594
1357,1357,Kincoppal-Rose Bay School of the Sacred Heart,New South Head Road,Rose Bay,2029,Combined,Co-ed,Independent,Non-Systemic,Catholic (Roman),,0,,Non special,Combined,http://www.krb.nsw.edu.au/,Woollahra (A),Vaucluse,Wentworth,Eastern Suburbs - North,Sydney - Eastern Suburbs,Major Cities of Australia,-33.864133,151.271996
1358,1358,Coogee Boys' Preparatory School,Cnr Cook and Alison Road,Randwick,2031,Primary,Male,Independent,Non-Systemic,Non-Denominational,,0,,Non special,Primary,http://www.coogeeprep.nsw.edu.au,Randwick (C),Coogee,Kingsford Smith,Eastern Suburbs - South,Sydney - Eastern Suburbs,Major Cities of Australia,-33.912015,151.238686
1359,1359,Corpus Christi Catholic Primary School,17 Link Road,St Ives,2075,Primary,Co-ed,Catholic,Systemic,Catholic (Roman),Broken Bay,4101,Catholic System NSW,Non special,Primary,http://www.ccsidbb.catholic.edu.au,Ku-ring-gai (A),Davidson,Bradfield,Ku-ring-gai,Sydney - North Sydney and Hornsby,Major Cities of Australia,-33.728293,151.16603
1360,1360,Corpus Christi Primary School,Platt Street,Waratah,2298,Primary,Co-ed,Catholic,Systemic,Catholic (Roman),Maitland,4101,Catholic System NSW,Non special,Primary,http://waratah.catholic.edu.au,Newcastle (C),Wallsend,Newcastle,Newcastle,Newcastle and Lake Macquarie,Major Cities of Australia,-32.900845,151.723195
1361,1361,Cranbrook School,5 Victoria Road,Bellevue Hill,2023,Combined,Male,Independent,Non-Systemic,Anglican,,0,,Non special,Secondary,http://www.cranbrook.nsw.edu.au,Woollahra (A),Vaucluse,Wentworth,Eastern Suburbs - North,Sydney - Eastern Suburbs,Major Cities of Australia,-33.871698,151.251993
1362,1362,Currambena School,205 Longueville Road,Lane Cove,2066,Primary,Co-ed,Independent,Non-Systemic,Other,,0,,Non special,Primary,http://www.currambena.nsw.edu.au,Lane Cove (A),Lane Cove,North Sydney,Chatswood - Lane Cove,Sydney - North Sydney and Hornsby,Major Cities of Australia,-33.820807,151.170301
1363,1363,Danebank School,84-98 Park Rd & 75 Queens Rd,Hurstville,2220,Combined,Female,Independent,Systemic,Anglican,,16718,Anglican Schools System Sydney,Non special,Combined,http://www.danebank.nsw.edu.au,Hurstville (C),Kogarah,Barton,Hurstville,Sydney - Inner South West,Major Cities of Australia,-33.962508,151.102756
1365,1365,De La Salle College,24 Bland St,Ashfield,2131,Secondary,Male,Catholic,Systemic,Catholic (Roman),Sydney,4101,Catholic System NSW,Non special,Secondary,http://www.dlsashfield.com.au/,Ashfield (A),Summer Hill,Grayndler,Strathfield - Burwood - Ashfield,Sydney - Inner West,Major Cities of Australia,-33.885212,151.125366
1366,1366,La Salle Catholic College,544 Chapel Rd,Bankstown,2200,Secondary,Co-ed,Catholic,Systemic,Catholic (Roman),Sydney,4101,Catholic System NSW,Non special,Secondary,http://www.lasalle.nsw.edu.au,Bankstown (C),Bankstown,Blaxland,Bankstown,Sydney - Inner South West,Major Cities of Australia,-33.90808,151.034897
1367,1367,"De La Salle Catholic College, Caringbah",389 Port Hacking Road,Caringbah,2229,Secondary,Male,Catholic,Systemic,Catholic (Roman),Sydney,4101,Catholic System NSW,Non special,Secondary,http://dlscaringbah.catholic.edu.au,Sutherland Shire (A),Cronulla,Cook,Cronulla - Miranda - Caringbah,Sydney - Sutherland,Major Cities of Australia,-34.045089,151.122439
1373,1373,De La Salle College,9 Ferndale Road,Revesby Heights,2212,Secondary,Male,Catholic,Systemic,Catholic (Roman),Sydney,4101,Catholic System NSW,Non special,Secondary,http://dlsrevesby.catholic.edu.au,Bankstown (C),East Hills,Banks,Bankstown,Sydney - Inner South West,Major Cities of Australia,-33.963329,151.015616
1375,1375,Mackillop College,Gorman'S Hill Road,Bathurst,2795,Secondary,Female,Catholic,Systemic,Catholic (Roman),Bathurst,4101,Catholic System NSW,Non special,Secondary,http://mackillopcollege.com.au,Bathurst Regional (A),Bathurst,Calare,Bathurst,Central West,Inner Regional Australia,-33.432524,149.588284
1378,1378,Domremy Catholic College,121 First Avenue,Five Dock,2046,Secondary,Female,Catholic,Systemic,Catholic (Roman),Sydney,4101,Catholic System NSW,Non special,Secondary,http://www.domremy.catholic.edu.au/,Canada Bay (A),Drummoyne,Reid,Canada Bay,Sydney - Inner West,Major Cities of Australia,-33.869709,151.132909
1379,1379,Edmund Rice College,112 Mount Keira Road,Wollongong West,2500,Secondary,Male,Independent,Non-Systemic,Catholic (Roman),,0,,Non special,Secondary,http://www.edmundricecollege.nsw.edu.au/,Wollongong (C),Keira,Cunningham,Wollongong,Illawarra,Major Cities of Australia,-34.419125,150.863596
1380,1380,Elonera Montessori School,21 Mount Ousley Road,Mount Ousley,2519,Combined,Co-ed,Independent,Non-Systemic,Montessori School,,0,,Non special,Combined,http://www.eloneramontessori.com.au,Wollongong (C),Keira,Cunningham,Wollongong,Illawarra,Major Cities of Australia,-34.407737,150.887415
1381,1381,Frensham School,Range Road,Mittagong,2575,Secondary,Female,Independent,Non-Systemic,Non-Denominational,,0,,Non special,Secondary,http://www.frensham.nsw.edu.au,Wingecarribee (A),Wollondilly,Whitlam,Southern Highlands,Southern Highlands and Shoalhaven,Inner Regional Australia,-34.452408,150.452321
1382,1382,Gib Gate School,Old Bowral Rd,Mittagong,2575,Primary,Co-ed,Independent,Non-Systemic,Non-Denominational,,0,,Non special,Primary,http://www.gibgate.nsw.edu.au,Wingecarribee (A),Wollondilly,Whitlam,Southern Highlands,Southern Highlands and Shoalhaven,Inner Regional Australia,-34.454371,150.429814
1383,1383,Glenaeon Rudolf Steiner School,5A Glenroy Avenue,Middle Cove,2068,Combined,Co-ed,Independent,Non-Systemic,Steiner School,,0,,Non special,Combined,http://www.glenaeon.nsw.edu.au,Willoughby (C),Willoughby,North Sydney,Chatswood - Lane Cove,Sydney - North Sydney and Hornsby,Major Cities of Australia,-33.791479,151.208694
1384,1384,St Augustine's Parish Primary School,10 Dandaloo St,Narromine,2821,Primary,Co-ed,Catholic,Systemic,Catholic (Roman),Wilcannia-Forbe,4101,Catholic System NSW,Non special,Primary,http://www.narromine.catholic.edu.au,Narromine (A),Dubbo,Parkes,Dubbo,Far West and Orana,Outer Regional Australia,-32.227799,148.239866
1387,1387,Holy Cross College,517 Victoria Road,Ryde,2112,Secondary,Male,Catholic,Systemic,Catholic (Roman),Sydney,4101,Catholic System NSW,Non special,Secondary,http://www.holycrosscollege.org,Ryde (C),Lane Cove,Bennelong,Ryde - Hunters Hill,Sydney - Ryde,Major Cities of Australia,-33.819607,151.117446
1388,1388,Holy Cross Catholic Primary School,81 Edgecliff Road,Woollahra,2022,Primary,Co-ed,Catholic,Systemic,Catholic (Roman),Sydney,4101,Catholic System NSW,Non special,Primary,http://www.hcpswoollahra.catholic.edu.au,Woollahra (A),Vaucluse,Wentworth,Eastern Suburbs - North,Sydney - Eastern Suburbs,Major Cities of Australia,-33.889857,151.251985
1390,1390,Holy Cross Primary School,326 Lake Rd,Glendale,2285,Primary,Co-ed,Catholic,Systemic,Catholic (Roman),Maitland,4101,Catholic System NSW,Non special,Primary,http://www.glendale.catholic.edu.au/,Lake Macquarie (C),Wallsend,Hunter,Lake Macquarie - East,Newcastle and Lake Macquarie,Major Cities of Australia,-32.925591,151.644715
1391,1391,Holy Cross Catholic Primary School,1 Mcmillan Street,Helensburgh,2508,Primary,Co-ed,Catholic,Systemic,Catholic (Roman),Wollongong,4101,Catholic System NSW,Non special,Primary,http://www.hchdow.catholic.edu.au,Wollongong (C),Heathcote,Cunningham,Wollongong,Illawarra,Major Cities of Australia,-34.186511,150.986895
1394,1394,Holy Family Primary School,199 The Trongate,Granville East,2142,Primary,Co-ed,Catholic,Systemic,Catholic (Roman),Parramatta,4101,Catholic System NSW,Non special,Primary,http://www.hfgranville.catholic.edu.au,Parramatta (C),Auburn,Parramatta,Merrylands - Guildford,Sydney - Parramatta,Major Cities of Australia,-33.847668,151.011135
1396,1396,Holy Family Catholic Primary School,2-4 Highfield Road,Lindfield,2070,Primary,Co-ed,Catholic,Systemic,Catholic (Roman),Broken Bay,4101,Catholic System NSW,Non special,Primary,http://www.holyfamily.nsw.edu.au,Ku-ring-gai (A),Davidson,Bradfield,Ku-ring-gai,Sydney - North Sydney and Hornsby,Major Cities of Australia,-33.773994,151.165844
1397,1397,Holy Family Primary School,19 Janet Street,Merewether Beach,2291,Primary,Co-ed,Catholic,Systemic,Catholic (Roman),Maitland,4101,Catholic System NSW,Non special,Primary,http://merewetherbeach.catholic.edu.au,Newcastle (C),Newcastle,Newcastle,Newcastle,Newcastle and Lake Macquarie,Major Cities of Australia,-32.948936,151.753398
1398,1398,Holy Innocents' Catholic Primary School,86-98 Queen Street,Croydon,2132,Primary,Co-ed,Catholic,Systemic,Catholic (Roman),Sydney,4101,Catholic System NSW,Non special,Primary,http://hicroydon.catholic.edu.au,Burwood (A),Strathfield,Reid,Strathfield - Burwood - Ashfield,Sydney - Inner West,Major Cities of Australia,-33.876215,151.113518
1399,1399,Holy Name Primary School,41 Lake Street,Forster,2428,Primary,Co-ed,Catholic,Systemic,Catholic (Roman),Maitland,4101,Catholic System NSW,Non special,Primary,http://forster.catholic.edu.au,Great Lakes (A),Myall Lakes,Lyne,Great Lakes,Mid North Coast,Inner Regional Australia,-32.182848,152.517788
1402,1402,Holy Spirit Primary School,Mutsch Street,Lavington,2641,Primary,Co-ed,Catholic,Systemic,Catholic (Roman),Wagga Wagga,4101,Catholic System NSW,Non special,Primary,http://www.hsww.catholic.edu.au,Albury (C),Albury,Farrer,Albury,Murray,Inner Regional Australia,-36.037908,146.934837
1403,1403,Holy Trinity School,Moore Street,Inverell,2360,Combined,Co-ed,Catholic,Systemic,Catholic (Roman),Armidale,4101,Catholic System NSW,Non special,Combined,http://www.holytrinity.nsw.edu.au/,Inverell (A),Northern Tablelands,New England,Inverell - Tenterfield,New England and North West,Outer Regional Australia,-29.779152,151.130976
1404,1404,Holy Trinity West Wagga,13 Bardia Street,Ashmont,2650,Primary,Co-ed,Catholic,Systemic,Catholic (Roman),Wagga Wagga,4101,Catholic System NSW,Non special,Primary,http://www.htww.catholic.edu.au,Wagga Wagga (C),Wagga Wagga,Riverina,Wagga Wagga,Riverina,Inner Regional Australia,-35.125111,147.334402
1405,1405,Holy Trinity Primary School,Grimwood Street,Granville,2142,Primary,Co-ed,Catholic,Systemic,Catholic (Roman),Parramatta,4101,Catholic System NSW,Non special,Primary,http://www.htgranville.catholic.edu.au,Parramatta (C),Granville,Parramatta,Merrylands - Guildford,Sydney - Parramatta,Major Cities of Australia,-33.835022,151.001612
1406,1406,The Illawarra Grammar School,10-12 Western Ave,West Wollongong,2500,Combined,Co-ed,Independent,Non-Systemic,Anglican,,0,,Non special,Combined,http://www.tigs.nsw.edu.au,Wollongong (C),Wollongong,Cunningham,Wollongong,Illawarra,Major Cities of Australia,-34.428141,150.870765
1407,1407,Immaculate Heart of Mary Catholic Primary School,10 Kerrinea Road,Sefton,2162,Primary,Co-ed,Catholic,Systemic,Catholic (Roman),Sydney,4101,Catholic System NSW,Non special,Primary,www.ihmsefton.catholic.edu.au,Bankstown (C),Bankstown,Blaxland,Merrylands - Guildford,Sydney - Parramatta,Major Cities of Australia,-33.887156,151.008747
1408,1408,Kambala,794 New South Head Road,Rose Bay,2029,Combined,Female,Independent,Non-Systemic,Anglican,,0,,Non special,Combined,http://www.kambala.nsw.edu.au,Woollahra (A),Vaucluse,Wentworth,Eastern Suburbs - North,Sydney - Eastern Suburbs,Major Cities of Australia,-33.865613,151.272108
1409,1409,Kinma School,127 Coolowie Road,Terrey Hills,2084,Primary,Co-ed,Independent,Non-Systemic,Non-Denominational,,0,,Non special,Primary,http://www.kinma.nsw.edu.au,Warringah (A),Pittwater,Mackellar,Warringah,Sydney - Northern Beaches,Major Cities of Australia,-33.686607,151.216969
1410,1410,Kinross Wolaroi School,59-67 Bathurst Road,Orange,2800,Combined,Co-ed,Independent,Non-Systemic,Uniting Church,,0,,Non special,Combined,http://www.kws.nsw.edu.au,Orange (C),Orange,Calare,Orange,Central West,Inner Regional Australia,-33.290963,149.11314
1411,1411,Knox Grammar School,2 Borambil Street,Wahroonga,2076,Combined,Male,Independent,Non-Systemic,Uniting Church,,0,,Non special,Secondary,http://www.knox.nsw.edu.au/,Ku-ring-gai (A),Ku-ring-gai,Bradfield,Ku-ring-gai,Sydney - North Sydney and Hornsby,Major Cities of Australia,-33.72254,151.118596
1412,1412,La Salle Academy,Rabaul St,Lithgow,2790,Secondary,Co-ed,Catholic,Systemic,Catholic (Roman),Bathurst,4101,Catholic System NSW,Non special,Secondary,http://www.lasalleacademy.com.au/,Lithgow (C),Bathurst,Calare,Lithgow - Mudgee,Central West,Inner Regional Australia,-33.495532,150.133152
1413,1413,Loquat Valley Anglican School Pittwater,1977 Pittwater Rd,Bayview,2104,Primary,Co-ed,Independent,Systemic,Anglican,,16718,Anglican Schools System Sydney,Non special,Primary,http://www.loquatvalley.nsw.edu.au,Pittwater (A),Pittwater,Mackellar,Pittwater,Sydney - Northern Beaches,Major Cities of Australia,-33.657509,151.295472
1414,1414,Loreto Kirribilli,85 Carabella St,Kirribilli,2061,Combined,Female,Independent,Non-Systemic,Catholic (Roman),,0,,Non special,Combined,http://www.loreto.nsw.edu.au/,North Sydney (A),North Shore,North Sydney,North Sydney - Mosman,Sydney - North Sydney and Hornsby,Major Cities of Australia,-33.847115,151.215953
1415,1415,Loreto Normanhurst,91-93 Pennant Hills Road,Normanhurst,2076,Combined,Female,Independent,Non-Systemic,Catholic (Roman),,0,,Non special,Combined,http://www.loretonh.nsw.edu.au,Hornsby (A),Ku-ring-gai,Bradfield,Hornsby,Sydney - North Sydney and Hornsby,Major Cities of Australia,-33.721001,151.101132
1416,1416,Lorien Novalis School for Rudolf Steiner Education,456 Old Northern Road,Dural,2158,Combined,Co-ed,Independent,Non-Systemic,Steiner School,,0,,Non special,Combined,http://www.lorien.com.au,The Hills Shire (A),Castle Hill,Berowra,Dural - Wisemans Ferry,Sydney - Baulkham Hills and Hawkesbury,Major Cities of Australia,-33.702607,151.014572
1417,1417,McAuley Catholic Primary School,8 Carlisle St,Rose Bay,2029,Primary,Co-ed,Catholic,Systemic,Catholic (Roman),Sydney,4101,Catholic System NSW,Non special,Primary,http://mcauley.catholic.edu.au,Woollahra (A),Vaucluse,Wentworth,Eastern Suburbs - North,Sydney - Eastern Suburbs,Major Cities of Australia,-33.870578,151.272035
1420,1420,Macksville Adventist School,Dudley Street,Macksville,2447,Primary,Co-ed,Independent,Systemic,Seventh Day Adventist,,0,SDA System North NSW,Non special,Primary,http://macksville.adventist.edu.au/,Nambucca (A),Oxley,Cowper,Kempsey - Nambucca,Mid North Coast,Outer Regional Australia,-30.709738,152.927269
1421,1421,Macarthur Adventist College,12 Victoria Road,Macquarie Fields,2564,Combined,Co-ed,Independent,Systemic,Seventh Day Adventist,,4110,SDA System Greater Sydney,Non special,Combined,http://www.macarthur.adventist.edu.au,Campbelltown (C),Macquarie Fields,Werriwa,Campbelltown (NSW),Sydney - Outer South West,Major Cities of Australia,-33.98353,150.885188
1422,1422,Marcellin College,195 Alison Road,Randwick,2031,Secondary,Male,Catholic,Systemic,Catholic (Roman),Sydney,4101,Catholic System NSW,Non special,Secondary,http://marcellin.nsw.edu.au,Randwick (C),Coogee,Kingsford Smith,Eastern Suburbs - South,Sydney - Eastern Suburbs,Major Cities of Australia,-33.913571,151.240721
1424,1424,Maria Regina Catholic Primary School,42 Central Road,Avalon Beach,2107,Primary,Co-ed,Catholic,Systemic,Catholic (Roman),Broken Bay,4101,Catholic System NSW,Non special,Primary,http://www.mradbb.catholic.edu.au,Pittwater (A),Pittwater,Mackellar,Pittwater,Sydney - Northern Beaches,Major Cities of Australia,-33.633492,151.33054
1429,1429,Marist College Kogarah,52 Wolseley St,Bexley,2207,Secondary,Male,Catholic,Systemic,Catholic (Roman),Sydney,4101,Catholic System NSW,Non special,Secondary,http://www.mck.nsw.edu.au/,Rockdale (C),Kogarah,Barton,Kogarah - Rockdale,Sydney - Inner South West,Major Cities of Australia,-33.958304,151.130397
1431,1431,Marist College,44 Hillview Road,Eastwood,2122,Secondary,Male,Catholic,Systemic,Catholic (Roman),Sydney,4101,Catholic System NSW,Non special,Secondary,http://home.mce.nsw.edu.au/,Ryde (C),Ryde,Bennelong,Ryde - Hunters Hill,Sydney - Ryde,Major Cities of Australia,-33.789442,151.0772
1433,1433,Marist Catholic College Penshurst,65 Victoria Avenue,Mortdale,2223,Secondary,Co-ed,Catholic,Systemic,Catholic (Roman),Sydney,4101,Catholic System NSW,Non special,Secondary,http://maristpagewood.catholic.edu.au,Hurstville (C),Oatley,Banks,Hurstville,Sydney - Inner South West,Major Cities of Australia,-33.967666,151.083278
1434,1434,Champagnat Catholic College,35 Donovan Avenue,Maroubra,2035,Secondary,Male,Catholic,Systemic,Catholic (Roman),Sydney,4101,Catholic System NSW,Non special,Secondary,http://maristpagewood.catholic.edu.au,Randwick (C),Maroubra,Kingsford Smith,Eastern Suburbs - South,Sydney - Eastern Suburbs,Major Cities of Australia,-33.946605,151.229064
1437,1437,Marist College North Shore,270 Miller Street,North Sydney,2060,Secondary,Male,Catholic,Systemic,Catholic (Roman),Sydney,4101,Catholic System NSW,Non special,Secondary,http://www.maristcollege.com,North Sydney (A),North Shore,North Sydney,North Sydney - Mosman,Sydney - North Sydney and Hornsby,Major Cities of Australia,-33.831804,151.208105
1438,1438,Sacred Heart Catholic Primary School,8 Cardinal St,Mosman,2088,Primary,Co-ed,Catholic,Systemic,Catholic (Roman),Sydney,4101,Catholic System NSW,Non special,Primary,http://www.shmosman.catholic.edu.au,Mosman (A),North Shore,Warringah,North Sydney - Mosman,Sydney - North Sydney and Hornsby,Major Cities of Australia,-33.824564,151.236298
1442,1442,St Joseph's College,Mark Street,Hunters Hill,2110,Secondary,Male,Independent,Non-Systemic,Catholic (Roman),,0,,Non special,Secondary,http://www.joeys.org/,Hunters Hill (A),Lane Cove,North Sydney,Ryde - Hunters Hill,Sydney - Ryde,Major Cities of Australia,-33.830728,151.138935
1444,1444,Marist Sisters' College Woolwich,66A Woolwich Road,Woolwich,2110,Secondary,Female,Catholic,Systemic,Catholic (Roman),Sydney,4101,Catholic System NSW,Non special,Secondary,http://www.mscw.nsw.edu.au,Hunters Hill (A),Lane Cove,North Sydney,Ryde - Hunters Hill,Sydney - Ryde,Major Cities of Australia,-33.839249,151.167506
1449,1449,Mater Dei Catholic Primary School,29 Heath Road,Blakehurst,2221,Primary,Co-ed,Catholic,Systemic,Catholic (Roman),Sydney,4101,Catholic System NSW,Non special,Primary,http://mdblakehurst.catholic.edu.au,Kogarah (C),Kogarah,Cook,Hurstville,Sydney - Inner South West,Major Cities of Australia,-33.98596,151.111709
1450,1450,Mater Maria Catholic College,Forest Road,Warriewood,2102,Secondary,Co-ed,Catholic,Systemic,Catholic (Roman),Broken Bay,4101,Catholic System NSW,Non special,Secondary,http://www.mmwdbb.catholic.edu.au,Pittwater (A),Pittwater,Mackellar,Pittwater,Sydney - Northern Beaches,Major Cities of Australia,-33.683473,151.286945
1451,1451,Meriden School,12 Redmyre Road,Strathfield,2135,Combined,Female,Independent,Non-Systemic,Anglican,,0,,Non special,Secondary,http://www.meriden.nsw.edu.au,Strathfield (A),Strathfield,Reid,Strathfield - Burwood - Ashfield,Sydney - Inner West,Major Cities of Australia,-33.873995,151.092041
1452,1452,MLC School,Rowley Street,Burwood,2134,Combined,Female,Independent,Non-Systemic,Uniting Church,,0,,Non special,Combined,http://www.mlcsyd.nsw.edu.au,Burwood (A),Strathfield,Reid,Strathfield - Burwood - Ashfield,Sydney - Inner West,Major Cities of Australia,-33.871647,151.100967
1453,1453,Monte Sant' Angelo Mercy College,128 Miller Street,North Sydney,2060,Secondary,Female,Independent,Non-Systemic,Catholic (Roman),,0,,Non special,Secondary,http://www.monte.nsw.edu.au,North Sydney (A),North Shore,North Sydney,North Sydney - Mosman,Sydney - North Sydney and Hornsby,Major Cities of Australia,-33.836476,151.207088
1454,1454,Moriah College,Queens Park Road,Bondi Junction,2022,Combined,Co-ed,Independent,Non-Systemic,Jewish,,0,,Non special,Combined,http://www.moriah.nsw.edu.au/,Waverley (A),Coogee,Wentworth,Eastern Suburbs - North,Sydney - Eastern Suburbs,Major Cities of Australia,-33.899355,151.244827
1456,1456,Our Lady of Mount Carmel Catholic Primary,4 Kellick Street,Waterloo,2017,Primary,Co-ed,Catholic,Systemic,Catholic (Roman),Sydney,4101,Catholic System NSW,Non special,Primary,http://olmcwaterloo.catholic.edu.au,Sydney (C),Heffron,Sydney,Sydney Inner City,Sydney - City and Inner South,Major Cities of Australia,-33.899515,151.205678
1459,1459,Mount St Benedict College,449C Pennant Hills Road,Pennant Hills,2120,Secondary,Female,Independent,Non-Systemic,Catholic (Roman),,0,,Non special,Secondary,http://www.msb.nsw.edu.au/,Hornsby (A),Epping,Berowra,Pennant Hills - Epping,Sydney - Ryde,Major Cities of Australia,-33.741555,151.059254
1460,1460,Sacred Heart Catholic School,4 Richard Porter Way,Pymble,2073,Primary,Co-ed,Catholic,Systemic,Catholic (Roman),Broken Bay,4101,Catholic System NSW,Non special,Primary,http://www.shpdbb.catholic.edu.au,Ku-ring-gai (A),Ku-ring-gai,Bradfield,Ku-ring-gai,Sydney - North Sydney and Hornsby,Major Cities of Australia,-33.739331,151.137104
1461,1461,Mount St John Primary School,Karabin Street,Dorrigo,2453,Primary,Co-ed,Catholic,Systemic,Catholic (Roman),Lismore,4101,Catholic System NSW,Non special,Primary,http://www.dorplism.catholic.edu.au,Bellingen (A),Oxley,Cowper,Coffs Harbour,Coffs Harbour - Grafton,Outer Regional Australia,-30.347208,152.714704
1462,1462,Mount St Joseph Milperra,273 Horsley Road,Milperra,2214,Secondary,Female,Catholic,Systemic,Catholic (Roman),Sydney,4101,Catholic System NSW,Non special,Secondary,http://www.msj.nsw.edu.au/,Bankstown (C),East Hills,Blaxland,Bankstown,Sydney - Inner South West,Major Cities of Australia,-33.942553,150.993292
1465,1465,Mount St Patrick Primary School,30 Mooball Street,Murwillumbah,2484,Primary,Co-ed,Catholic,Systemic,Catholic (Roman),Lismore,4101,Catholic System NSW,Non special,Primary,http://www.murp.lism.catholic.edu.au/,Tweed (A),Lismore,Richmond,Tweed Valley,Richmond - Tweed,Inner Regional Australia,-28.326148,153.394837
1466,1466,Mount St Patrick College,Main Street,Murwillumbah,2484,Secondary,Co-ed,Catholic,Systemic,Catholic (Roman),Lismore,4101,Catholic System NSW,Non special,Secondary,http://www.mursclism.catholic.edu.au,Tweed (A),Lismore,Richmond,Tweed Valley,Richmond - Tweed,Inner Regional Australia,-28.325477,153.394073
1467,1467,Nagle College,58A Orwell Street,Blacktown South,2148,Secondary,Female,Catholic,Systemic,Catholic (Roman),Parramatta,4101,Catholic System NSW,Non special,Secondary,http://www.nagleblacktown.catholic.edu.au,Blacktown (C),Prospect,Greenway,Blacktown,Sydney - Blacktown,Major Cities of Australia,-33.790142,150.901741
1470,1470,Macquarie College,182-222 Lake Road,Wallsend,2287,Combined,Co-ed,Independent,Systemic,Seventh Day Adventist,,0,SDA System North NSW,Non special,Combined,http://www.macquariecollege.nsw.edu.au,Lake Macquarie (C),Wallsend,Hunter,Lake Macquarie - East,Newcastle and Lake Macquarie,Major Cities of Australia,-32.922273,151.652731
1471,1471,New England Girls School,Uralla Road,Armidale,2350,Combined,Co-ed,Independent,Non-Systemic,Anglican,,0,,Non special,Combined,http://www.negs.nsw.edu.au,Armidale Dumaresq (A),Northern Tablelands,New England,Armidale,New England and North West,Inner Regional Australia,-30.519325,151.639774
1472,1472,Newington College,200 Stanmore Road,Stanmore,2048,Combined,Male,Independent,Non-Systemic,Uniting Church,,0,,Non special,Secondary,http://www.newingtoncollege.nsw.edu.au,Marrickville (A),Newtown,Grayndler,Marrickville - Sydenham - Petersham,Sydney - City and Inner South,Major Cities of Australia,-33.897706,151.162913
1473,1473,Oakhill College Castle Hill,521 Old Northern Road,Castle Hill,2154,Secondary,Co-ed,Independent,Non-Systemic,Catholic (Roman),,0,,Non special,Secondary,http://www.oakhill.nsw.edu.au,Hornsby (A),Epping,Berowra,Baulkham Hills,Sydney - Baulkham Hills and Hawkesbury,Major Cities of Australia,-33.72331,151.019677
1476,1476,Our Lady Help of Christians Catholic Primary School,8-14 Cambridge Street,Epping,2121,Primary,Co-ed,Catholic,Systemic,Catholic (Roman),Broken Bay,4101,Catholic System NSW,Non special,Primary,http://www.olhcdbb.catholic.edu.au,Hornsby (A),Epping,Bennelong,Pennant Hills - Epping,Sydney - Ryde,Major Cities of Australia,-33.770685,151.082975
1479,1479,Our Lady Help of Christians Primary School,24 Rhodes Street,Lismore South,2480,Primary,Co-ed,Catholic,Systemic,Catholic (Roman),Lismore,4101,Catholic System NSW,Non special,Primary,http://www.lisslism.catholic.edu.au,Lismore (C),Lismore,Page,Richmond Valley - Hinterland,Richmond - Tweed,Inner Regional Australia,-28.815294,153.263706
1480,1480,Our Lady of Dolours Catholic Primary School,94A Archer Street,Chatswood,2067,Primary,Co-ed,Catholic,Systemic,Catholic (Roman),Broken Bay,4101,Catholic System NSW,Non special,Primary,http://www.olddbb.catholic.edu.au,Willoughby (C),Willoughby,Bradfield,Chatswood - Lane Cove,Sydney - North Sydney and Hornsby,Major Cities of Australia,-33.794612,151.184258
1482,1482,Our Lady of Fatima Catholic Primary School,389 Port Hacking Road,Caringbah,2229,Primary,Co-ed,Catholic,Systemic,Catholic (Roman),Sydney,4101,Catholic System NSW,Non special,Primary,http://olfcaringbah.catholic.edu.au,Sutherland Shire (A),Cronulla,Cook,Cronulla - Miranda - Caringbah,Sydney - Sutherland,Major Cities of Australia,-34.04568,151.121517
1483,1483,Our Lady of Fatima Catholic Primary School,51 Caroline Street,Kingsgrove,2208,Primary,Co-ed,Catholic,Systemic,Catholic (Roman),Sydney,4101,Catholic System NSW,Non special,Primary,http://olfkingsgrove.catholic.edu.au,Rockdale (C),Kogarah,Barton,Kogarah - Rockdale,Sydney - Inner South West,Major Cities of Australia,-33.940713,151.102911
1484,1484,Our Lady of Good Counsel Catholic Primary School,11 Currie Road,Forestville,2087,Primary,Co-ed,Catholic,Systemic,Catholic (Roman),Broken Bay,4101,Catholic System NSW,Non special,Primary,http://www.olgcdbb.catholic.edu.au,Warringah (A),Wakehurst,Warringah,Warringah,Sydney - Northern Beaches,Major Cities of Australia,-33.760229,151.220556
1485,1485,Maronite College of the Holy Family - Parramatta,23-25 Alice Street,Harris Park,2150,Combined,Co-ed,Independent,Non-Systemic,Catholic (Other),,0,,Non special,Combined,http://www.mchf.nsw.edu.au,Parramatta (C),Parramatta,Parramatta,Parramatta,Sydney - Parramatta,Major Cities of Australia,-33.821552,151.014574
1486,1486,Our Lady of Lourdes Primary School,5 Canyon Road,Baulkham Hills South,2153,Primary,Co-ed,Catholic,Systemic,Catholic (Roman),Parramatta,4101,Catholic System NSW,Non special,Primary,http://www.ololbhills.catholic.edu.au,The Hills Shire (A),Baulkham Hills,Mitchell,Baulkham Hills,Sydney - Baulkham Hills and Hawkesbury,Major Cities of Australia,-33.766925,150.998102
1487,1487,Our Lady of Lourdes Catholic Primary School,St James Avenue,Earlwood,2206,Primary,Co-ed,Catholic,Systemic,Catholic (Roman),Sydney,4101,Catholic System NSW,Non special,Primary,http://ololearlwood.catholic.edu.au,Canterbury (C),Canterbury,Barton,Canterbury,Sydney - Inner South West,Major Cities of Australia,-33.926987,151.126725
1489,1489,Our Lady of Lourdes Primary School,7 Grantham Road,Seven Hills,2147,Primary,Co-ed,Catholic,Systemic,Catholic (Roman),Parramatta,4101,Catholic System NSW,Non special,Primary,http://www.ololshills.catholic.edu.au,Blacktown (C),Seven Hills,Greenway,Blacktown,Sydney - Blacktown,Major Cities of Australia,-33.778664,150.932254
1490,1490,Our Lady of Lourdes Primary School,Anderson Drive,Tarro,2322,Primary,Co-ed,Catholic,Systemic,Catholic (Roman),Maitland,4101,Catholic System NSW,Non special,Primary,http://tarro.catholic.edu.au,Newcastle (C),Wallsend,Paterson,Newcastle,Newcastle and Lake Macquarie,Major Cities of Australia,-32.809188,151.661803
1491,1491,Our Lady of Mercy Catholic College Burraneer,62-66 Dominic Street,Cronulla,2230,Secondary,Female,Catholic,Systemic,Catholic (Roman),Sydney,4101,Catholic System NSW,Non special,Secondary,http://olmcburraneer.catholic.edu.au,Sutherland Shire (A),Cronulla,Cook,Cronulla - Miranda - Caringbah,Sydney - Sutherland,Major Cities of Australia,-34.05434,151.135366
1495,1495,Our Lady of Mercy College Parramatta,Victoria Road,Parramatta,2150,Secondary,Female,Independent,Non-Systemic,Catholic (Roman),,0,,Non special,Secondary,http://www.olmc.nsw.edu.au/,Parramatta (C),Parramatta,Parramatta,Parramatta,Sydney - Parramatta,Major Cities of Australia,-33.808348,151.003558
1497,1497,Saints Peter and Paul Primary School,10 Knox Street,Goulburn,2580,Primary,Co-ed,Catholic,Systemic,Catholic (Roman),Canberra-Goulbu,4101,Catholic System NSW,Non special,Primary,http://www.sppg.nsw.edu.au,Goulburn Mulwaree (A),Goulburn,Hume,Goulburn - Yass,Capital Region,Inner Regional Australia,-34.759304,149.701827
1498,1498,Our Lady of Mt Carmel Catholic Primary School Mount Pritchard,230 Humphries Rd,Bonnyrigg,2177,Primary,Co-ed,Catholic,Systemic,Catholic (Roman),Sydney,4101,Catholic System NSW,Non special,Primary,http://olmcmtpritchard.catholic.edu.au,Fairfield (C),Cabramatta,Fowler,Fairfield,Sydney - South West,Major Cities of Australia,-33.893599,150.898581
1500,1500,Our Lady of Mount Carmel Primary School,Bennett Street,Wentworthville,2145,Primary,Co-ed,Catholic,Systemic,Catholic (Roman),Parramatta,4101,Catholic System NSW,Non special,Primary,http://www.olmcwentworthville.catholic.edu.au,Holroyd (C),Granville,Parramatta,Parramatta,Sydney - Parramatta,Major Cities of Australia,-33.812221,150.969591
1501,1501,Our Lady of Perpetual Succour Catholic Primary School,64 Kendall Street,West Pymble,2073,Primary,Co-ed,Catholic,Systemic,Catholic (Roman),Broken Bay,4101,Catholic System NSW,Non special,Primary,http://www.olpsdbb.catholic.edu.au,Ku-ring-gai (A),Ku-ring-gai,Bradfield,Ku-ring-gai,Sydney - North Sydney and Hornsby,Major Cities of Australia,-33.761008,151.130312
1503,1503,Our Lady of The Annunciation Catholic Primary School,31 Donovan Avenue,Maroubra,2035,Primary,Co-ed,Catholic,Systemic,Catholic (Roman),Sydney,4101,Catholic System NSW,Non special,Primary,http://olapagewood.catholic.edu.au,Randwick (C),Maroubra,Kingsford Smith,Eastern Suburbs - South,Sydney - Eastern Suburbs,Major Cities of Australia,-33.946787,151.229893
1504,1504,Our Lady of the Nativity Primary School,7 Somers Street,Lawson,2783,Primary,Co-ed,Catholic,Systemic,Catholic (Roman),Parramatta,4101,Catholic System NSW,Non special,Primary,http://www.olnlawson.catholic.edu.au,Blue Mountains (C),Blue Mountains,Macquarie,Blue Mountains,Sydney - Outer West and Blue Mountains,Major Cities of Australia,-33.719732,150.440038
1505,1505,Mary MacKillop Catholic College,5 Carnarvon Street,Wakeley,2176,Secondary,Female,Catholic,Systemic,Catholic (Roman),Sydney,4101,Catholic System NSW,Non special,Secondary,http://mmcwakeley.catholic.edu.au,Fairfield (C),Fairfield,Fowler,Fairfield,Sydney - South West,Major Cities of Australia,-33.866026,150.910826
1506,1506,Our Lady of the Rosary Catholic Primary School,20 Vine Street,Fairfield,2165,Primary,Co-ed,Catholic,Systemic,Catholic (Roman),Sydney,4101,Catholic System NSW,Non special,Primary,http://olrfairfield.catholic.edu.au/,Fairfield (C),Fairfield,McMahon,Fairfield,Sydney - South West,Major Cities of Australia,-33.872794,150.959367
1507,1507,Our Lady of The Rosary Catholic Primary School,Kensington Road,Kensington,2033,Primary,Co-ed,Catholic,Systemic,Catholic (Roman),Sydney,4101,Catholic System NSW,Non special,Primary,http://olrkensington.catholic.edu.au,Randwick (C),Heffron,Kingsford Smith,Eastern Suburbs - South,Sydney - Eastern Suburbs,Major Cities of Australia,-33.912153,151.221109
1508,1508,Our Lady of the Rosary Primary School,32b Saddington Street,St Marys,2760,Primary,Co-ed,Catholic,Systemic,Catholic (Roman),Parramatta,4101,Catholic System NSW,Non special,Primary,http://www.olorstmarys.catholic.edu.au,Penrith (C),Londonderry,Lindsay,St Marys,Sydney - Outer West and Blue Mountains,Major Cities of Australia,-33.772735,150.774748
1509,1509,Our Lady Of The Rosary Catholic Primary School,Shelly Beach Road,Shelly Beach,2261,Primary,Co-ed,Catholic,Systemic,Catholic (Roman),Broken Bay,4101,Catholic System NSW,Non special,Primary,http://www.olrtedbb.catholic.edu.au,Wyong (A),The Entrance,Dobell,Wyong,Central Coast,Major Cities of Australia,-33.345211,151.49494
1510,1510,Our Lady of the Rosary Catholic Primary School,23 Yardley Avenue,Waitara,2077,Primary,Co-ed,Catholic,Systemic,Catholic (Roman),Broken Bay,4101,Catholic System NSW,Non special,Primary,http://www.olorwdbb.catholic.edu.au,Hornsby (A),Ku-ring-gai,Bradfield,Hornsby,Sydney - North Sydney and Hornsby,Major Cities of Australia,-33.713747,151.104473
1512,1512,Our Lady of the Sacred Heart College,36 Addison Street,Kensington,2033,Secondary,Female,Catholic,Systemic,Catholic (Roman),Sydney,4101,Catholic System NSW,Non special,Secondary,http://olshkensington.catholic.edu.au,Randwick (C),Heffron,Kingsford Smith,Eastern Suburbs - South,Sydney - Eastern Suburbs,Major Cities of Australia,-33.912662,151.219769
1514,1514,Our Lady of the Sacred Heart Catholic Primary School,193 Avoca Street,Randwick,2031,Primary,Co-ed,Catholic,Systemic,Catholic (Roman),Sydney,4101,Catholic System NSW,Non special,Primary,http://olshrandwick.catholic.edu.au,Randwick (C),Coogee,Kingsford Smith,Eastern Suburbs - South,Sydney - Eastern Suburbs,Major Cities of Australia,-33.915717,151.241606
1515,1515,Our Lady of Victories Primary School,15 Lovell Parade,Shortland,2307,Primary,Co-ed,Catholic,Systemic,Catholic (Roman),Maitland,4101,Catholic System NSW,Non special,Primary,http://shortland.catholic.edu.au,Newcastle (C),Wallsend,Newcastle,Newcastle,Newcastle and Lake Macquarie,Major Cities of Australia,-32.888519,151.694497
1518,1518,Parramatta Marist High School,2 Darcy Road,Westmead,2145,Secondary,Male,Catholic,Systemic,Catholic (Roman),Parramatta,4101,Catholic System NSW,Non special,Secondary,http://www.parramarist.nsw.edu.au/,Parramatta (C),Seven Hills,Parramatta,Parramatta,Sydney - Parramatta,Major Cities of Australia,-33.805128,150.984213
1519,1519,Patrician Brothers' College,100 Flushcombe Rd,Blacktown,2148,Secondary,Male,Catholic,Systemic,Catholic (Roman),Parramatta,4101,Catholic System NSW,Non special,Secondary,http://www.patsblacktown.nsw.edu.au/,Blacktown (C),Blacktown,Greenway,Blacktown,Sydney - Blacktown,Major Cities of Australia,-33.775358,150.909543
1520,1520,Patrician Brothers' College Fairfield,268 The Horsley Drive,Fairfield,2165,Secondary,Male,Catholic,Systemic,Catholic (Roman),Sydney,4101,Catholic System NSW,Non special,Secondary,http://pbcfairfield.catholic.edu.au,Fairfield (C),Fairfield,Fowler,Merrylands - Guildford,Sydney - Parramatta,Major Cities of Australia,-33.872141,150.963528
1521,1521,Delany College,Grimwood Street,Granville,2142,Secondary,Co-ed,Catholic,Systemic,Catholic (Roman),Parramatta,4101,Catholic System NSW,Non special,Secondary,http://www.delanygranville.catholic.edu.au,Parramatta (C),Granville,Parramatta,Merrylands - Guildford,Sydney - Parramatta,Major Cities of Australia,-33.834406,151.001174
1524,1524,Port Macquarie Adventist School,500 Ocean Drive,Port Macquarie,2444,Primary,Co-ed,Independent,Systemic,Seventh Day Adventist,,0,SDA System North NSW,Non special,Primary,http://www.portmacquarie.adventist.edu.au,Port Macquarie-Hastings (A),Port Macquarie,Cowper,Port Macquarie,Mid North Coast,Inner Regional Australia,-31.467565,152.899899
1525,1525,PLC Armidale,15-57 Crest Road,Armidale,2350,Combined,Female,Independent,Non-Systemic,Presbyterian,,0,,Non special,Combined,http://www.plcarmidale.nsw.edu.au/,Armidale Dumaresq (A),Northern Tablelands,New England,Armidale,New England and North West,Inner Regional Australia,-30.503633,151.66291
1526,1526,Presbyterian Ladies College,Boundary Street,Croydon,2132,Combined,Female,Independent,Non-Systemic,Presbyterian,,0,,Non special,Combined,http://www.plc.nsw.edu.au,Burwood (A),Strathfield,Reid,Strathfield - Burwood - Ashfield,Sydney - Inner West,Major Cities of Australia,-33.881336,151.115655
1528,1528,Pymble Ladies' College,Avon Road,Pymble,2073,Combined,Female,Independent,Non-Systemic,Uniting Church,,0,,Non special,Combined,http://www.pymblelc.nsw.edu.au,Ku-ring-gai (A),Ku-ring-gai,Bradfield,Ku-ring-gai,Sydney - North Sydney and Hornsby,Major Cities of Australia,-33.747306,151.134137
1529,1529,Prouille Catholic Primary School,5 Water Street,Wahroonga,2076,Primary,Co-ed,Catholic,Systemic,Catholic (Roman),Broken Bay,4101,Catholic System NSW,Non special,Primary,http://www.prouilledbb.catholic.edu.au,Ku-ring-gai (A),Ku-ring-gai,Bradfield,Ku-ring-gai,Sydney - North Sydney and Hornsby,Major Cities of Australia,-33.715801,151.121588
1530,1530,Queenwood School for Girls Ltd,47 Mandolong Rd,Mosman,2088,Combined,Female,Independent,Non-Systemic,Non-Denominational,,0,,Non special,Secondary,http://www.queenwood.nsw.edu.au,Mosman (A),North Shore,Warringah,North Sydney - Mosman,Sydney - North Sydney and Hornsby,Major Cities of Australia,-33.834453,151.243303
1531,1531,Ravenswood School for Girls,Henry Street,Gordon,2072,Combined,Female,Independent,Non-Systemic,Uniting Church,,0,,Non special,Combined,http://www.ravenswood.nsw.edu.au,Ku-ring-gai (A),Ku-ring-gai,Bradfield,Ku-ring-gai,Sydney - North Sydney and Hornsby,Major Cities of Australia,-33.759249,151.155054
1532,1532,Regina Coeli Catholic Primary School,2 Tarrilli Street,Beverly Hills,2209,Primary,Co-ed,Catholic,Systemic,Catholic (Roman),Sydney,4101,Catholic System NSW,Non special,Primary,http://rcbeverlyhills.catholic.edu.au,Hurstville (C),Kogarah,Barton,Hurstville,Sydney - Inner South West,Major Cities of Australia,-33.946885,151.08
1534,1534,Roseville College,27-29 Bancroft Avenue,Roseville,2069,Combined,Female,Independent,Systemic,Anglican,,16718,Anglican Schools System Sydney,Non special,Combined,http://www.rosevillecollege.com,Ku-ring-gai (A),Davidson,Bradfield,Ku-ring-gai,Sydney - North Sydney and Hornsby,Major Cities of Australia,-33.78517,151.179521
1540,1540,Sacred Heart School,57 Laidlaw Street,Boggabri,2382,Primary,Co-ed,Catholic,Systemic,Catholic (Roman),Armidale,4101,Catholic System NSW,Non special,Primary,http://www.arm.catholic.edu.au/schools/boggabri,Narrabri (A),Barwon,Parkes,Tamworth - Gunnedah,New England and North West,Outer Regional Australia,-30.706671,150.045822
1541,1541,Sacred Heart Catholic School,Gilmore Street,Cabramatta,2166,Primary,Co-ed,Catholic,Systemic,Catholic (Roman),Sydney,4101,Catholic System NSW,Non special,Primary,http://shcabramatta.catholic.edu.au,Fairfield (C),Cabramatta,Fowler,Fairfield,Sydney - South West,Major Cities of Australia,-33.890482,150.93653
1543,1543,Sacred Heart Primary School,Church St,Coolah,2843,Primary,Co-ed,Catholic,Systemic,Catholic (Roman),Bathurst,4101,Catholic System NSW,Non special,Primary,http://www.ceo.bathurst.catholic.edu.au/,Warrumbungle Shire (A),Barwon,Parkes,Dubbo,Far West and Orana,Outer Regional Australia,-31.825643,149.710819
1548,1548,Sacred Heart Catholic Primary School,Waratah St,Mona Vale,2103,Primary,Co-ed,Catholic,Systemic,Catholic (Roman),Broken Bay,4101,Catholic System NSW,Non special,Primary,http://www.shmvdbb.catholic.edu.au,Pittwater (A),Pittwater,Mackellar,Pittwater,Sydney - Northern Beaches,Major Cities of Australia,-33.675596,151.30026
1552,1552,Sacred Heart Primary School,37-45 Charlotte Street,Tocumwal,2714,Primary,Co-ed,Catholic,Systemic,Catholic (Roman),Wagga Wagga,4101,Catholic System NSW,Non special,Primary,http://www.shtww.catholic.edu.au,Berrigan (A),Murray,Farrer,Upper Murray exc. Albury,Murray,Inner Regional Australia,-35.814863,145.575806
1554,1554,Sacred Heart Catholic Primary School,122 Carawatha Street,Villawood,2163,Primary,Co-ed,Catholic,Systemic,Catholic (Roman),Sydney,4101,Catholic System NSW,Non special,Primary,http://shvillawood.catholic.edu.au,Bankstown (C),Bankstown,Blaxland,Bankstown,Sydney - Inner South West,Major Cities of Australia,-33.889059,150.975512
1555,1555,Sacred Heart Primary School,12 Ralph Street,Westmead,2145,Primary,Co-ed,Catholic,Systemic,Catholic (Roman),Parramatta,4101,Catholic System NSW,Non special,Primary,http://www.sacredheartwestmead.catholic.edu.au,Holroyd (C),Granville,Parramatta,Parramatta,Sydney - Parramatta,Major Cities of Australia,-33.813595,150.986749
1556,1556,St Agatha's Catholic Primary School,7 Trebor Road,Pennant Hills,2120,Primary,Co-ed,Catholic,Systemic,Catholic (Roman),Broken Bay,4101,Catholic System NSW,Non special,Primary,http://www.saphdbb.catholic.edu.au,Hornsby (A),Hornsby,Berowra,Pennant Hills - Epping,Sydney - Ryde,Major Cities of Australia,-33.739302,151.066878
1558,1558,St Agnes' Catholic Primary School,511 Bunnerong Road,Matraville,2036,Primary,Co-ed,Catholic,Systemic,Catholic (Roman),Sydney,4101,Catholic System NSW,Non special,Primary,http://www.stagnesmatraville.com.au,Randwick (C),Maroubra,Kingsford Smith,Eastern Suburbs - South,Sydney - Eastern Suburbs,Major Cities of Australia,-33.958865,151.231575
1559,1559,St Aidan's Catholic Primary School,214 Maroubra Road,Maroubra,2035,Primary,Co-ed,Catholic,Systemic,Catholic (Roman),Sydney,4101,Catholic System NSW,Non special,Primary,http://stamaroubra.catholic.edu.au,Randwick (C),Maroubra,Kingsford Smith,Eastern Suburbs - South,Sydney - Eastern Suburbs,Major Cities of Australia,-33.941868,151.241796
1560,1560,St Aidan's Primary School,5 Adelaide Street,Rooty Hill,2766,Primary,Co-ed,Catholic,Systemic,Catholic (Roman),Parramatta,4101,Catholic System NSW,Non special,Primary,http://www.staidansrootyhill.catholic.edu.au,Blacktown (C),Mount Druitt,Chifley,Mount Druitt,Sydney - Blacktown,Major Cities of Australia,-33.765133,150.83744
1562,1562,St Aloysius' College,47 Upper Pitt Street,Milsons Point,2061,Combined,Male,Independent,Non-Systemic,Catholic (Roman),,0,,Non special,Secondary,http://www.staloysius.nsw.edu.au,North Sydney (A),North Shore,North Sydney,North Sydney - Mosman,Sydney - North Sydney and Hornsby,Major Cities of Australia,-33.848502,151.214259
1564,1564,St Aloysius Catholic Primary School,Giddings Avenue,Cronulla,2230,Primary,Co-ed,Catholic,Systemic,Catholic (Roman),Sydney,4101,Catholic System NSW,Non special,Primary,http://stacronulla.catholic.edu.au,Sutherland Shire (A),Cronulla,Cook,Cronulla - Miranda - Caringbah,Sydney - Sutherland,Major Cities of Australia,-34.057601,151.153079
1565,1565,St Ambrose Catholic Primary School,Stuart Street,Concord West,2138,Primary,Co-ed,Catholic,Systemic,Catholic (Roman),Sydney,4101,Catholic System NSW,Non special,Primary,http://stambconcord.catholic.edu.au,Canada Bay (A),Drummoyne,Reid,Canada Bay,Sydney - Inner West,Major Cities of Australia,-33.849833,151.086876
1567,1567,St Andrew's Catholic Primary School,18 Prince Edward Street,Malabar,2036,Primary,Co-ed,Catholic,Systemic,Catholic (Roman),Sydney,4101,Catholic System NSW,Non special,Primary,http://stamalabar.catholic.edu.au,Randwick (C),Maroubra,Kingsford Smith,Eastern Suburbs - South,Sydney - Eastern Suburbs,Major Cities of Australia,-33.964057,151.247554
1568,1568,St Andrew's Primary School,36 Breakfast Road,Marayong,2148,Primary,Co-ed,Catholic,Systemic,Catholic (Roman),Parramatta,4101,Catholic System NSW,Non special,Primary,http://www.standrewspsmarayong.catholic.edu.au,Blacktown (C),Blacktown,Chifley,Blacktown,Sydney - Blacktown,Major Cities of Australia,-33.749153,150.888961
1571,1571,Galilee Catholic Primary School,60B Blair Street,Bondi Beach,2026,Primary,Co-ed,Catholic,Systemic,Catholic (Roman),Sydney,4101,Catholic System NSW,Non special,Primary,http://www.galileebondi.catholic.edu.au,Waverley (A),Vaucluse,Wentworth,Eastern Suburbs - North,Sydney - Eastern Suburbs,Major Cities of Australia,-33.885435,151.276527
1573,1573,St Anne's Primary School,Curlew Crescent,Albury North,2640,Primary,Co-ed,Catholic,Systemic,Catholic (Roman),Wagga Wagga,4101,Catholic System NSW,Non special,Primary,http://www.sanaww.catholic.edu.au,Albury (C),Albury,Farrer,Albury,Murray,Inner Regional Australia,-36.060324,146.936111
1574,1574,St Anne's Catholic Primary School,St Anne'S Square,Strathfield South,2136,Primary,Co-ed,Catholic,Systemic,Catholic (Roman),Sydney,4101,Catholic System NSW,Non special,Primary,http://stastrathfield.catholic.edu.au,Strathfield (A),Strathfield,Watson,Strathfield - Burwood - Ashfield,Sydney - Inner West,Major Cities of Australia,-33.892383,151.077934
1575,1575,St Anne's Central School,De Boos St,Temora,2666,Combined,Co-ed,Catholic,Systemic,Catholic (Roman),Canberra-Goulbu,4101,Catholic System NSW,Non special,Combined,http://www.stannestemora.nsw.edu.au,Temora (A),Cootamundra,Riverina,Wagga Wagga,Riverina,Outer Regional Australia,-34.445517,147.535171
1577,1577,St Anthony's Catholic Primary School,58 Arden Street,Clovelly,2031,Primary,Co-ed,Catholic,Systemic,Catholic (Roman),Sydney,4101,Catholic System NSW,Non special,Primary,http://staclovelly.catholic.edu.au,Randwick (C),Coogee,Wentworth,Eastern Suburbs - South,Sydney - Eastern Suburbs,Major Cities of Australia,-33.910531,151.258766
1579,1579,St Anthony's Primary School,216 Targo Rd,Girraween,2145,Primary,Co-ed,Catholic,Systemic,Catholic (Roman),Parramatta,4101,Catholic System NSW,Non special,Primary,http://www.stanthonysgirraween.catholic.edu.au,Holroyd (C),Prospect,Greenway,Parramatta,Sydney - Parramatta,Major Cities of Australia,-33.792236,150.950479
1580,1580,St Anthony's Primary School,23 Boomerang Street,Kingscliff,2487,Primary,Co-ed,Catholic,Systemic,Catholic (Roman),Lismore,4101,Catholic System NSW,Non special,Primary,http://www.kngplism.catholic.edu.au,Tweed (A),Tweed,Richmond,Tweed Valley,Richmond - Tweed,Major Cities of Australia,-28.257509,153.576094
1582,1582,St Augustine's College,Alfred Road,Brookvale,2100,Combined,Male,Independent,Non-Systemic,Catholic (Roman),,0,,Non special,Combined,http://www.saintaug.nsw.edu.au,Warringah (A),Wakehurst,Warringah,Warringah,Sydney - Northern Beaches,Major Cities of Australia,-33.760141,151.271862
1584,1584,St Augustine's Primary School,Gordon Street,Coffs Harbour,2450,Primary,Co-ed,Catholic,Systemic,Catholic (Roman),Lismore,4101,Catholic System NSW,Non special,Primary,http://www.cofhplism.catholic.edu.au,Coffs Harbour (C),Coffs Harbour,Cowper,Coffs Harbour,Coffs Harbour - Grafton,Inner Regional Australia,-30.300858,153.113055
1586,1586,St Bede's Primary School,Park Lane,Braidwood,2622,Primary,Co-ed,Catholic,Systemic,Catholic (Roman),Canberra-Goulbu,4101,Catholic System NSW,Non special,Primary,http://www.stbedesb.nsw.edu.au,Palerang (A),Monaro,Eden-Monaro,Queanbeyan,Capital Region,Inner Regional Australia,-35.44175,149.799421
1588,1588,St Benedict's Primary School,839 Main Road,Edgeworth,2285,Primary,Co-ed,Catholic,Systemic,Catholic (Roman),Maitland,4101,Catholic System NSW,Non special,Primary,http://edgeworth.catholic.edu.au/,Lake Macquarie (C),Cessnock,Hunter,Lake Macquarie - West,Newcastle and Lake Macquarie,Major Cities of Australia,-32.923248,151.611986
1589,1589,St Bernadette's Primary School,357 Old Northern Road,Castle Hill,2154,Primary,Co-ed,Catholic,Systemic,Catholic (Roman),Parramatta,4101,Catholic System NSW,Non special,Primary,http://www.stbernadetteschill.catholic.edu.au,The Hills Shire (A),Castle Hill,Mitchell,Baulkham Hills,Sydney - Baulkham Hills and Hawkesbury,Major Cities of Australia,-33.731875,151.011759
1590,1590,St Bernadette's Primary School,Cox Crescent,Dundas Valley,2117,Primary,Co-ed,Catholic,Systemic,Catholic (Roman),Parramatta,4101,Catholic System NSW,Non special,Primary,http://www.stbernadettesdundas.catholic.edu.au,Parramatta (C),Parramatta,Parramatta,Carlingford,Sydney - Parramatta,Major Cities of Australia,-33.790923,151.05055
1592,1592,St Bernadette's Primary School,18 Wheeler Street,Lalor Park,2147,Primary,Co-ed,Catholic,Systemic,Catholic (Roman),Parramatta,4101,Catholic System NSW,Non special,Primary,http://www.stbernadetteslalorpark.catholic.edu.au,Blacktown (C),Blacktown,Greenway,Blacktown,Sydney - Blacktown,Major Cities of Australia,-33.761315,150.92628
1593,1593,St Bernard's Catholic Primary School,Warrina St,Berowra Heights,2082,Primary,Co-ed,Catholic,Systemic,Catholic (Roman),Broken Bay,4101,Catholic System NSW,Non special,Primary,http://www.sbbdbb.catholic.edu.au,Hornsby (A),Hornsby,Berowra,Hornsby,Sydney - North Sydney and Hornsby,Major Cities of Australia,-33.614196,151.144474
1594,1594,St Bernard's Catholic Primary School,Ramsgate Street,Botany,2019,Primary,Co-ed,Catholic,Systemic,Catholic (Roman),Sydney,4101,Catholic System NSW,Non special,Primary,http://stbbotany.catholic.edu.au,Botany Bay (C),Maroubra,Kingsford Smith,Botany,Sydney - City and Inner South,Major Cities of Australia,-33.945453,151.200034
1595,1595,St Brigid's Primary School,8 Tooloon Street,Coonamble,2829,Primary,Co-ed,Catholic,Systemic,Catholic (Roman),Bathurst,4101,Catholic System NSW,Non special,Primary,http://www.ceo.bathurst.catholic.edu.au/images/stories/docs/stbrigidscoonambleannualreport2005.pdf,Coonamble (A),Barwon,Parkes,Bourke - Cobar - Coonamble,Far West and Orana,Remote Australia,-30.952783,148.387128
1597,1597,St Brendan's Catholic Primary School,30 Collins St,Annandale,2038,Primary,Co-ed,Catholic,Systemic,Catholic (Roman),Sydney,4101,Catholic System NSW,Non special,Primary,http://stbannandale.catholic.edu.au/,Leichhardt (A),Balmain,Grayndler,Leichhardt,Sydney - Inner West,Major Cities of Australia,-33.884204,151.170909
1598,1598,St Brendan's Catholic Primary School,18 Cambridge Avenue,Bankstown,2200,Primary,Co-ed,Catholic,Systemic,Catholic (Roman),Sydney,4101,Catholic System NSW,Non special,Primary,http://stbbankstown.catholic.edu.au,Bankstown (C),Bankstown,Blaxland,Bankstown,Sydney - Inner South West,Major Cities of Australia,-33.921723,151.029046
1599,1599,St Brendan's Primary School,46 Langham St,Ganmain,2702,Primary,Co-ed,Catholic,Systemic,Catholic (Roman),Wagga Wagga,4101,Catholic System NSW,Non special,Primary,http://www.sbww.catholic.edu.au,Coolamon (A),Cootamundra,Riverina,Wagga Wagga,Riverina,Outer Regional Australia,-34.796397,147.042871
1602,1602,St Brigid's Catholic Primary School,2 Vickery Street,Gwynneville,2500,Primary,Co-ed,Catholic,Systemic,Catholic (Roman),Wollongong,4101,Catholic System NSW,Non special,Primary,http://www.sbgdow.catholic.edu.au/,Wollongong (C),Wollongong,Cunningham,Wollongong,Illawarra,Major Cities of Australia,-34.416383,150.882332
1603,1603,St Brigid's Catholic Primary School,392A Marrickville Road,Marrickville,2204,Primary,Co-ed,Catholic,Systemic,Catholic (Roman),Sydney,4101,Catholic System NSW,Non special,Primary,http://stbmarrickville.catholic.edu.au/,Marrickville (A),Summer Hill,Grayndler,Marrickville - Sydenham - Petersham,Sydney - City and Inner South,Major Cities of Australia,-33.909693,151.152463
1608,1608,St Brigid's Primary School,Groom Street,Kyogle,2474,Primary,Co-ed,Catholic,Systemic,Catholic (Roman),Lismore,4101,Catholic System NSW,Non special,Primary,http://www.kyogplism.catholic.edu.au,Kyogle (A),Lismore,Page,Richmond Valley - Hinterland,Richmond - Tweed,Inner Regional Australia,-28.626191,153.004565
1610,1610,St Brigid's Primary School,52 Irrawang Street,Raymond Terrace,2324,Primary,Co-ed,Catholic,Systemic,Catholic (Roman),Maitland,4101,Catholic System NSW,Non special,Primary,http://raymondterrace.catholic.edu.au,Port Stephens (A),Port Stephens,Paterson,Port Stephens,Hunter Valley exc Newcastle,Major Cities of Australia,-32.76456,151.746583
1611,1611,St Canice's Primary School,158 Katoomba Street,Katoomba,2780,Primary,Co-ed,Catholic,Systemic,Catholic (Roman),Parramatta,4101,Catholic System NSW,Non special,Primary,http://www.stcaniceskatoomba.catholic.edu.au,Blue Mountains (C),Blue Mountains,Macquarie,Blue Mountains,Sydney - Outer West and Blue Mountains,Major Cities of Australia,-33.716088,150.311092
1613,1613,St Catherine Labour Catholic Primary School,123 Gymea Bay Road,Gymea,2227,Primary,Co-ed,Catholic,Systemic,Catholic (Roman),Sydney,4101,Catholic System NSW,Non special,Primary,http://sclgymea.catholic.edu.au,Sutherland Shire (A),Miranda,Cook,Cronulla - Miranda - Caringbah,Sydney - Sutherland,Major Cities of Australia,-34.037134,151.083979
1615,1615,St Catherine's School,26 Albion Street,Waverley,2024,Combined,Female,Independent,Non-Systemic,Anglican,,0,,Non special,Combined,http://www.stcaths.nsw.edu.au,Waverley (A),Coogee,Wentworth,Eastern Suburbs - North,Sydney - Eastern Suburbs,Major Cities of Australia,-33.903752,151.255351
1616,1616,St Cecilia's Catholic Primary School,59 Seaview Street,Balgowlah,2093,Primary,Co-ed,Catholic,Systemic,Catholic (Roman),Broken Bay,4101,Catholic System NSW,Non special,Primary,http://www.scbdbb.catholic.edu.au,Manly (A),Manly,Warringah,Manly,Sydney - Northern Beaches,Major Cities of Australia,-33.79624,151.25797
1617,1617,St Cecilia's Catholic Primary School,Panonia Road,Wyong,2259,Primary,Co-ed,Catholic,Systemic,Catholic (Roman),Broken Bay,4101,Catholic System NSW,Non special,Primary,http://www.scwdbb.catholic.edu.au,Wyong (A),Wyong,Dobell,Wyong,Central Coast,Major Cities of Australia,-33.291361,151.428293
1618,1618,St Charles Catholic Primary School,582 Victoria Road,Ryde,2112,Primary,Co-ed,Catholic,Systemic,Catholic (Roman),Sydney,4101,Catholic System NSW,Non special,Primary,http://scpsryde.catholic.edu.au,Ryde (C),Lane Cove,Bennelong,Ryde - Hunters Hill,Sydney - Ryde,Major Cities of Australia,-33.818342,151.114403
1619,1619,St Charles' Primary School,53-63 Carrington Road,Waverley,2024,Primary,Co-ed,Catholic,Systemic,Catholic (Roman),Sydney,4101,Catholic System NSW,Non special,Primary,http://stcwaverley.catholic.edu.au,Waverley (A),Coogee,Wentworth,Eastern Suburbs - North,Sydney - Eastern Suburbs,Major Cities of Australia,-33.89926,151.253604
1620,1620,St Christopher's Catholic Primary School,237 Tower Street,Panania,2213,Primary,Co-ed,Catholic,Systemic,Catholic (Roman),Sydney,4101,Catholic System NSW,Non special,Primary,http://stcpanania.catholic.edu.au,Bankstown (C),East Hills,Banks,Bankstown,Sydney - Inner South West,Major Cities of Australia,-33.957452,150.996616
1621,1621,St Philip Neri Catholic Primary School,67 Baringa Road,Northbridge,2063,Primary,Co-ed,Catholic,Systemic,Catholic (Roman),Broken Bay,4101,Catholic System NSW,Non special,Primary,http://www.spndbb.catholic.edu.au,Willoughby (C),Willoughby,North Sydney,Chatswood - Lane Cove,Sydney - North Sydney and Hornsby,Major Cities of Australia,-33.812124,151.214678
1622,1622,St Clare's College,41-51 Carrington Road,Waverley,2024,Secondary,Female,Catholic,Systemic,Catholic (Roman),Sydney,4101,Catholic System NSW,Non special,Secondary,http://www.stclares.nsw.edu.au,Randwick (C),Coogee,Wentworth,Eastern Suburbs - South,Sydney - Eastern Suburbs,Major Cities of Australia,-33.898575,151.253428
1624,1624,St Columban's Primary School,39 Church St,Mayfield,2304,Primary,Co-ed,Catholic,Systemic,Catholic (Roman),Maitland,4101,Catholic System NSW,Non special,Primary,http://mayfieldsc.catholic.edu.au,Newcastle (C),Newcastle,Newcastle,Newcastle,Newcastle and Lake Macquarie,Major Cities of Australia,-32.896763,151.74189
1625,1625,St Columba's School,Forbes Street,Yeoval,2868,Primary,Co-ed,Catholic,Systemic,Catholic (Roman),Bathurst,4101,Catholic System NSW,Non special,Primary,www.stcolumbasyeoval.catholic.edu.au,Cabonne (A),Orange,Calare,Dubbo,Far West and Orana,Outer Regional Australia,-32.754016,148.649583
1627,1627,St Columba's Primary School,Lockyer St,Adamstown,2289,Primary,Co-ed,Catholic,Systemic,Catholic (Roman),Maitland,4101,Catholic System NSW,Non special,Primary,http://www.adamstownsc.catholic.edu.au,Newcastle (C),Charlestown,Newcastle,Newcastle,Newcastle and Lake Macquarie,Major Cities of Australia,-32.937186,151.725652
1628,1628,St Columba's Primary School,6-14 Corcoran St,Berrigan,2712,Primary,Co-ed,Catholic,Systemic,Catholic (Roman),Wagga Wagga,4101,Catholic System NSW,Non special,Primary,http://www.scww.catholic.edu.au,Berrigan (A),Murray,Farrer,Upper Murray exc. Albury,Murray,Outer Regional Australia,-35.655676,145.80874
1629,1629,St Columba's Catholic Primary School,215 Elswick St,Leichhardt North,2040,Primary,Co-ed,Catholic,Systemic,Catholic (Roman),Sydney,4101,Catholic System NSW,Non special,Primary,http://scpsleichhardt.catholic.edu.au,Leichhardt (A),Balmain,Grayndler,Leichhardt,Sydney - Inner West,Major Cities of Australia,-33.879698,151.152206
1630,1630,St Columbkille's Catholic Primary School,119 Princes Highway,Corrimal,2518,Primary,Co-ed,Catholic,Systemic,Catholic (Roman),Wollongong,4101,Catholic System NSW,Non special,Primary,http://www.sccdow.catholic.edu.au,Wollongong (C),Keira,Cunningham,Wollongong,Illawarra,Major Cities of Australia,-34.367869,150.897683
1631,1631,St Declan's Catholic Primary School,94 Penshurst St,Penshurst,2222,Primary,Co-ed,Catholic,Systemic,Catholic (Roman),Sydney,4101,Catholic System NSW,Non special,Primary,http://stdpenshurst.catholic.edu.au,Hurstville (C),Oatley,Banks,Hurstville,Sydney - Inner South West,Major Cities of Australia,-33.963247,151.086994
1632,1632,St Dominic's College,54-74 Gascoigne Street,Kingswood,2747,Combined,Male,Independent,Non-Systemic,Catholic (Roman),,0,,Non special,Secondary,http://www.stdominics.nsw.edu.au/,Penrith (C),Penrith,Lindsay,Penrith,Sydney - Outer West and Blue Mountains,Major Cities of Australia,-33.753735,150.713765
1636,1636,St Edward's College,13 Frederick Street,East Gosford,2250,Secondary,Male,Independent,Non-Systemic,Catholic (Roman),,0,,Non special,Secondary,http://www.stedwards.nsw.edu.au/,Gosford (C),Gosford,Robertson,Gosford,Central Coast,Major Cities of Australia,-33.438548,151.346057
1637,1637,St Edward's School,Tilga Street,Canowindra,2804,Primary,Co-ed,Catholic,Systemic,Catholic (Roman),Bathurst,4101,Catholic System NSW,Non special,Primary,http://www.ceo.bathurst.catholic.edu.au/images/Reports/st%20edwards%20canowindra%20school%20rep07.pdf,Cabonne (A),Orange,Calare,Lachlan Valley,Central West,Inner Regional Australia,-33.565652,148.664657
1639,1639,St Felix's Catholic Primary School,552 Chapel Road,Bankstown,2200,Primary,Co-ed,Catholic,Systemic,Catholic (Roman),Sydney,4101,Catholic System NSW,Non special,Primary,http://stfbankstown.catholic.edu.au,Bankstown (C),Bankstown,Blaxland,Bankstown,Sydney - Inner South West,Major Cities of Australia,-33.907133,151.035432
1640,1640,St Fiacre's Catholic Primary School,98 Catherine Street,Leichhardt,2040,Primary,Co-ed,Catholic,Systemic,Catholic (Roman),Sydney,4101,Catholic System NSW,Non special,Primary,http://stfleichhardt.catholic.edu.au,Leichhardt (A),Balmain,Grayndler,Leichhardt,Sydney - Inner West,Major Cities of Australia,-33.884798,151.162197
1641,1641,St Finbarr's Primary School,1 Arakwal Court,Byron Bay,2481,Primary,Co-ed,Catholic,Systemic,Catholic (Roman),Lismore,4101,Catholic System NSW,Non special,Primary,http://www.bbplism.catholic.edu.au,Byron (A),Ballina,Richmond,Richmond Valley - Coastal,Richmond - Tweed,Inner Regional Australia,-28.6656,153.6158
1642,1642,St Finbar's Primary School,Broughton St,Sans Souci,2219,Primary,Co-ed,Catholic,Systemic,Catholic (Roman),Sydney,4101,Catholic System NSW,Non special,Primary,http://stfsanssouci.catholic.edu.au,Kogarah (C),Rockdale,Cook,Kogarah - Rockdale,Sydney - Inner South West,Major Cities of Australia,-33.992474,151.129188
1643,1643,St Finbar's Primary School,Levy Street,Glenbrook,2773,Primary,Co-ed,Catholic,Systemic,Catholic (Roman),Parramatta,4101,Catholic System NSW,Non special,Primary,http://www.stfinbarsglenbrook.catholic.edu.au,Blue Mountains (C),Penrith,Macquarie,Blue Mountains,Sydney - Outer West and Blue Mountains,Major Cities of Australia,-33.761142,150.61756
1644,1644,St Francis de Sales Regional College,Yanco Avenue,Leeton,2705,Secondary,Co-ed,Catholic,Systemic,Catholic (Roman),Wagga Wagga,4101,Catholic System NSW,Non special,Secondary,http://www.sfcww.catholic.edu.au,Leeton (A),Murray,Farrer,Griffith - Murrumbidgee (West),Riverina,Outer Regional Australia,-34.567877,146.41053
1645,1645,St Francis De Sales' Catholic Primary School,14 Hill Street,Woolooware,2230,Primary,Co-ed,Catholic,Systemic,Catholic (Roman),Sydney,4101,Catholic System NSW,Non special,Primary,http://stfdswoolooware.catholic.edu.au,Sutherland Shire (A),Cronulla,Cook,Cronulla - Miranda - Caringbah,Sydney - Sutherland,Major Cities of Australia,-34.052366,151.142136
1646,1646,St Francis of Assisi Catholic Primary School,95 Flagstaff Road,Warrawong,2502,Primary,Co-ed,Catholic,Systemic,Catholic (Roman),Wollongong,4101,Catholic System NSW,Non special,Primary,http://www.sfawdow.catholic.edu.au,Wollongong (C),Wollongong,Cunningham,Dapto - Port Kembla,Illawarra,Major Cities of Australia,-34.479703,150.879865
1647,1647,St Francis of Assisi Regional Catholic Primary School,64 Gordon St,Paddington,2021,Primary,Co-ed,Catholic,Systemic,Catholic (Roman),Sydney,4101,Catholic System NSW,Non special,Primary,http://stfpaddington.catholic.edu.au,Sydney (C),Sydney,Wentworth,Eastern Suburbs - North,Sydney - Eastern Suburbs,Major Cities of Australia,-33.888487,151.231352
1648,1648,St Francis Xavier's College,286 Parkway Avenue,Hamilton,2303,Secondary,Co-ed,Catholic,Systemic,Catholic (Roman),Maitland,4101,Catholic System NSW,Non special,Secondary,http://hamilton.catholic.edu.au,Newcastle (C),Newcastle,Newcastle,Newcastle,Newcastle and Lake Macquarie,Major Cities of Australia,-32.927166,151.753714
1649,1649,St Francis Xavier Catholic School Ashbury,40-44 Forbes St,Croydon Park,2133,Primary,Co-ed,Catholic,Systemic,Catholic (Roman),Sydney,4101,Catholic System NSW,Non special,Primary,http://stfxashbury.catholic.edu.au,Canterbury (C),Summer Hill,Watson,Strathfield - Burwood - Ashfield,Sydney - Inner West,Major Cities of Australia,-33.896955,151.114352
1650,1650,St Francis Xavier's Catholic Primary School,Forest Road,Arncliffe,2205,Primary,Co-ed,Catholic,Systemic,Catholic (Roman),Sydney,4101,Catholic System NSW,Non special,Primary,http://stfxarncliffe.catholic.edu.au/,Rockdale (C),Rockdale,Barton,Kogarah - Rockdale,Sydney - Inner South West,Major Cities of Australia,-33.939599,151.147263
1651,1651,St Francis Xavier's Primary School,38-50 Swift Street,Ballina,2478,Primary,Co-ed,Catholic,Systemic,Catholic (Roman),Lismore,4101,Catholic System NSW,Non special,Primary,http://www.balplism.catholic.edu.au,Ballina (A),Ballina,Richmond,Richmond Valley - Coastal,Richmond - Tweed,Inner Regional Australia,-28.868353,153.564096
1652,1652,St Francis Xavier Primary School,Conapaira Street,Lake Cargelligo,2672,Primary,Co-ed,Catholic,Systemic,Catholic (Roman),Canberra-Goulbu,4101,Catholic System NSW,Non special,Primary,http://www.sfxlake.nsw.edu.au,Lachlan (A),Barwon,Parkes,Lachlan Valley,Central West,Remote Australia,-33.29647,146.3688
1654,1654,St Francis Xavier Primary School,End Street,Urana,2645,Primary,Co-ed,Catholic,Systemic,Catholic (Roman),Wagga Wagga,4101,Catholic System NSW,Non special,Primary,http://www.sfxuww.catholic.edu.au,Urana (A),Albury,Farrer,Upper Murray exc. Albury,Murray,Outer Regional Australia,-35.334685,146.26408
1657,1657,St Gabriel's Catholic School,50-52 Abercorn Street,Bexley,2207,Primary,Co-ed,Catholic,Systemic,Catholic (Roman),Sydney,4101,Catholic System NSW,Non special,Primary,http://stgbexley.catholic.edu.au,Rockdale (C),Kogarah,Barton,Kogarah - Rockdale,Sydney - Inner South West,Major Cities of Australia,-33.947877,151.12174
1658,1658,St Gerard's Catholic Primary School,543 North Rocks Rd,Carlingford,2118,Primary,Co-ed,Catholic,Systemic,Catholic (Roman),Broken Bay,4101,Catholic System NSW,Non special,Primary,http://www.sgcdbb.catholic.edu.au,Hornsby (A),Epping,Bennelong,Carlingford,Sydney - Parramatta,Major Cities of Australia,-33.765875,151.050937
1659,1659,St Gertrude's Catholic Primary School,1-11 Justin Street,Smithfield,2164,Primary,Co-ed,Catholic,Systemic,Catholic (Roman),Sydney,4101,Catholic System NSW,Non special,Primary,http://stgsmithfield.catholic.edu.au,Fairfield (C),Prospect,McMahon,Fairfield,Sydney - South West,Major Cities of Australia,-33.854662,150.93817
1660,1660,St Gregory's College Campbelltown,100 Badgally Road,Gregory Hills,2557,Secondary,Male,Independent,Non-Systemic,Catholic (Roman),,0,,Non special,Secondary,http://www.stgregs.nsw.edu.au,Campbelltown (C),Campbelltown,Macarthur,Campbelltown (NSW),Sydney - Outer South West,Major Cities of Australia,-34.04102,150.788495
1663,1663,St Ignatius' College,Tambourine Bay Road,Lane Cove,2066,Combined,Male,Independent,Non-Systemic,Catholic (Roman),,0,,Non special,Combined,http://www.riverview.nsw.edu.au,Lane Cove (A),Lane Cove,North Sydney,Chatswood - Lane Cove,Sydney - North Sydney and Hornsby,Major Cities of Australia,-33.819533,151.165517
1664,1664,St Ignatius' Primary School,3 Meek Street,Bourke,2840,Primary,Co-ed,Catholic,Systemic,Catholic (Roman),Wilcannia-Forbe,4101,Catholic System NSW,Non special,Primary,http://www.wf.catholic.edu.au/Schools/BourkeSchool/school-bourke.html,Bourke (A),Barwon,Parkes,Bourke - Cobar - Coonamble,Far West and Orana,Very Remote Australia,-30.088163,145.931546
1665,1665,St James Catholic Primary School,2 Woolley St,Glebe,2037,Primary,Co-ed,Catholic,Systemic,Catholic (Roman),Sydney,4101,Catholic System NSW,Non special,Primary,http://www.stjforestlodge.catholic.edu.au,Sydney (C),Balmain,Sydney,Sydney Inner City,Sydney - City and Inner South,Major Cities of Australia,-33.879547,151.18509
1666,1666,St James Primary School,Vista Parade,Kotara South,2289,Primary,Co-ed,Catholic,Systemic,Catholic (Roman),Maitland,4101,Catholic System NSW,Non special,Primary,http://kotarasouth.catholic.edu.au,Newcastle (C),Charlestown,Newcastle,Newcastle,Newcastle and Lake Macquarie,Major Cities of Australia,-32.948315,151.699885
1667,1667,St James Primary School,Skellatar Stock Route,Muswellbrook,2333,Primary,Co-ed,Catholic,Systemic,Catholic (Roman),Maitland,4101,Catholic System NSW,Non special,Primary,http://muswellbrook.catholic.edu.au,Muswellbrook (A),Upper Hunter,Hunter,Upper Hunter,Hunter Valley exc Newcastle,Inner Regional Australia,-32.28022,150.883778
1668,1668,St Jerome's Catholic Primary School,Rossmore Ave,Punchbowl,2196,Primary,Co-ed,Catholic,Systemic,Catholic (Roman),Sydney,4101,Catholic System NSW,Non special,Primary,http://stjpunchbowl.catholic.edu.au,Canterbury (C),Lakemba,Watson,Canterbury,Sydney - Inner South West,Major Cities of Australia,-33.927378,151.054852
1669,1669,St Joachim's Catholic Primary School,7 Mary Street,Lidcombe,2141,Primary,Co-ed,Catholic,Systemic,Catholic (Roman),Sydney,4101,Catholic System NSW,Non special,Primary,http://stjlidcombe.catholic.edu.au,Auburn (C),Auburn,Reid,Auburn,Sydney - Parramatta,Major Cities of Australia,-33.862936,151.046117
1670,1670,St Joan Of Arc Catholic Primary School,88 Dalhousie St,Haberfield,2045,Primary,Co-ed,Catholic,Systemic,Catholic (Roman),Sydney,4101,Catholic System NSW,Non special,Primary,http://stjahaberfield.catholic.edu.au,Ashfield (A),Summer Hill,Grayndler,Strathfield - Burwood - Ashfield,Sydney - Inner West,Major Cities of Australia,-33.879352,151.139551
1671,1671,St John Bosco Catholic Primary School,Banksia Avenue,Engadine,2233,Primary,Co-ed,Catholic,Systemic,Catholic (Roman),Sydney,4101,Catholic System NSW,Non special,Primary,http://sjbpsengadine.catholic.edu.au,Sutherland Shire (A),Heathcote,Hughes,Sutherland - Menai - Heathcote,Sydney - Sutherland,Major Cities of Australia,-34.065931,151.008349
1672,1672,St John's Primary School,138 Sheraton Road,Dubbo,2830,Primary,Co-ed,Catholic,Systemic,Catholic (Roman),Bathurst,4101,Catholic System NSW,Non special,Primary,http://www.stjohnsprimarydubbo.catholic.edu.au/,Dubbo (C),Dubbo,Parkes,Dubbo,Far West and Orana,Inner Regional Australia,-32.252065,148.603559
1673,1673,St John's College,162 Sheraton Road,Dubbo,2830,Secondary,Co-ed,Catholic,Systemic,Catholic (Roman),Bathurst,4101,Catholic System NSW,Non special,Secondary,http://www.stjohnsdubbo.catholic.edu.au/,Dubbo (C),Dubbo,Parkes,Dubbo,Far West and Orana,Inner Regional Australia,-32.268003,148.645796
1676,1676,St John's Lutheran Primary School,154 Adams Street,Jindera,2642,Primary,Co-ed,Independent,Systemic,Lutheran,,0,,Non special,Primary,http://www.stjls.nsw.edu.au,Greater Hume Shire (A),Albury,Farrer,Albury,Murray,Inner Regional Australia,-35.95709,146.881683
1677,1677,St John's Catholic Primary School,77 Queen Street,Auburn,2144,Primary,Co-ed,Catholic,Systemic,Catholic (Roman),Sydney,4101,Catholic System NSW,Non special,Primary,http://www.stjauburn.catholic.edu.au,Auburn (C),Auburn,Blaxland,Auburn,Sydney - Parramatta,Major Cities of Australia,-33.851348,151.032786
1678,1678,St John the Evangelist Catholic Primary School,Lindesay Street,Campbelltown,2560,Primary,Co-ed,Catholic,Systemic,Catholic (Roman),Wollongong,4101,Catholic System NSW,Non special,Primary,http://www.sjctdow.catholic.edu.au,Campbelltown (C),Campbelltown,Macarthur,Campbelltown (NSW),Sydney - Outer South West,Major Cities of Australia,-34.069508,150.817454
1679,1679,St John's Catholic Primary School,Jerematta Street,Dapto,2530,Primary,Co-ed,Catholic,Systemic,Catholic (Roman),Wollongong,4101,Catholic System NSW,Non special,Primary,http://www.sjddow.catholic.edu.au,Wollongong (C),Shellharbour,Whitlam,Dapto - Port Kembla,Illawarra,Major Cities of Australia,-34.49325,150.799363
1680,1680,St John the Baptist Primary School,12 Victoria St,Maitland,2320,Primary,Co-ed,Catholic,Systemic,Catholic (Roman),Maitland,4101,Catholic System NSW,Non special,Primary,http://maitlandsj.catholic.edu.au,Maitland (C),Maitland,Paterson,Maitland,Hunter Valley exc Newcastle,Major Cities of Australia,-32.73807,151.558325
1682,1682,St John's School,Queen St,Baradine,2396,Primary,Co-ed,Catholic,Systemic,Catholic (Roman),Bathurst,4101,Catholic System NSW,Non special,Primary,http://www.stjohnsbaradine.catholic.edu.au/,Warrumbungle Shire (A),Barwon,Parkes,Dubbo,Far West and Orana,Remote Australia,-30.950582,149.065925
1684,1684,St John's Primary School,2-4 Prince Street,Cobar,2835,Primary,Co-ed,Catholic,Systemic,Catholic (Roman),Wilcannia-Forbe,4101,Catholic System NSW,Non special,Primary,http://www.cobar.catholic.edu.au,Cobar (A),Barwon,Parkes,Bourke - Cobar - Coonamble,Far West and Orana,Remote Australia,-31.498509,145.833936
1685,1685,St John's Primary School,Dickson Street,Lambton,2299,Primary,Co-ed,Catholic,Systemic,Catholic (Roman),Maitland,4101,Catholic System NSW,Non special,Primary,http://lambton.catholic.edu.au,Newcastle (C),Wallsend,Newcastle,Newcastle,Newcastle and Lake Macquarie,Major Cities of Australia,-32.910351,151.710549
1688,1688,St John The Apostle Catholic Primary School,166 Alfred Street,Narraweena,2099,Primary,Co-ed,Catholic,Systemic,Catholic (Roman),Broken Bay,4101,Catholic System NSW,Non special,Primary,http://www.sjandbb.catholic.edu.au,Warringah (A),Wakehurst,Mackellar,Warringah,Sydney - Northern Beaches,Major Cities of Australia,-33.750459,151.274351
1689,1689,St John's Primary School,5 Mcculloch Street,Riverstone,2765,Primary,Co-ed,Catholic,Systemic,Catholic (Roman),Parramatta,4101,Catholic System NSW,Non special,Primary,http://www.stjohnsriverstone.catholic.edu.au,Blacktown (C),Riverstone,Greenway,Blacktown - North,Sydney - Blacktown,Major Cities of Australia,-33.67541,150.871901
1690,1690,St John's Primary School,89 Dandaloo Street,Trangie,2823,Primary,Co-ed,Catholic,Systemic,Catholic (Roman),Wilcannia-Forbe,4101,Catholic System NSW,Non special,Primary,http://www.trangie.catholic.edu.au,Narromine (A),Dubbo,Parkes,Dubbo,Far West and Orana,Outer Regional Australia,-32.03496,147.978546
1691,1691,St John The Baptist Catholic Primary School,7 Johnson St,Freshwater,2096,Primary,Co-ed,Catholic,Systemic,Catholic (Roman),Broken Bay,4101,Catholic System NSW,Non special,Primary,http://www.sjbfdbb.catholic.edu.au,Warringah (A),Manly,Warringah,Warringah,Sydney - Northern Beaches,Major Cities of Australia,-33.774908,151.282986
1692,1692,St John The Baptist Catholic Primary School,21A Dulkara Road,Woy Woy South,2256,Primary,Co-ed,Catholic,Systemic,Catholic (Roman),Broken Bay,4101,Catholic System NSW,Non special,Primary,http://www.sjbwoywoy.org.au,Gosford (C),Gosford,Robertson,Gosford,Central Coast,Major Cities of Australia,-33.502835,151.304027
1694,1694,St John Vianney Catholic Primary School,78 Tempe Street,Greenacre,2190,Primary,Co-ed,Catholic,Systemic,Catholic (Roman),Sydney,4101,Catholic System NSW,Non special,Primary,http://stjvgreenacre.catholic.edu.au,Bankstown (C),Lakemba,Watson,Bankstown,Sydney - Inner South West,Major Cities of Australia,-33.903833,151.0593
1695,1695,St John Vianney's Primary School,60-66 Yambo Street,Morisset,2264,Primary,Co-ed,Catholic,Systemic,Catholic (Roman),Maitland,4101,Catholic System NSW,Non special,Primary,http://morisset.catholic.edu.au,Lake Macquarie (C),Lake Macquarie,Hunter,Lake Macquarie - West,Newcastle and Lake Macquarie,Major Cities of Australia,-33.109189,151.485189
1698,1698,St Patrick's Primary School,113 Gregory Rd,Lochinvar,2321,Primary,Co-ed,Catholic,Systemic,Catholic (Roman),Maitland,4101,Catholic System NSW,Non special,Primary,http://lochinvarsp.catholic.edu.au,Maitland (C),Maitland,Paterson,Maitland,Hunter Valley exc Newcastle,Inner Regional Australia,-32.70211,151.455239
1700,1700,St Joseph's Primary School,Greville Street,South Murwillumbah,2484,Primary,Co-ed,Catholic,Systemic,Catholic (Roman),Lismore,4101,Catholic System NSW,Non special,Primary,http://www.smurplism.catholic.edu.au,Tweed (A),Lismore,Richmond,Tweed Valley,Richmond - Tweed,Inner Regional Australia,-28.331316,153.398364
1701,1701,St Joseph's Primary School,80 Palace Street,Denman,2328,Primary,Co-ed,Catholic,Systemic,Catholic (Roman),Maitland,4101,Catholic System NSW,Non special,Primary,http://denman.catholic.edu.au,Muswellbrook (A),Upper Hunter,Hunter,Upper Hunter,Hunter Valley exc Newcastle,Inner Regional Australia,-32.386959,150.689135
1702,1702,St Joseph's Primary School,36 Kemp Street,West Kempsey,2440,Primary,Co-ed,Catholic,Systemic,Catholic (Roman),Lismore,4101,Catholic System NSW,Non special,Primary,http://www.kmpplism.catholic.edu.au,Kempsey (A),Oxley,Cowper,Kempsey - Nambucca,Mid North Coast,Inner Regional Australia,-31.075541,152.832134
1703,1703,St Joseph's Primary School,421 Ocean Drive,Laurieton,2443,Primary,Co-ed,Catholic,Systemic,Catholic (Roman),Lismore,4101,Catholic System NSW,Non special,Primary,http://www.larplism.catholic.edu.au,Port Macquarie-Hastings (A),Port Macquarie,Lyne,Port Macquarie,Mid North Coast,Inner Regional Australia,-31.640825,152.792044
1704,1704,Sts Peter and Paul Catholic Primary School,96 Manning Street,Kiama,2533,Primary,Co-ed,Catholic,Systemic,Catholic (Roman),Wollongong,4101,Catholic System NSW,Non special,Primary,http://www.ssppdow.catholic.edu.au,Kiama (A),Kiama,Gilmore,Kiama - Shellharbour,Illawarra,Inner Regional Australia,-34.675825,150.853223
1705,1705,St Joseph's Catholic School,Queen Street,Oberon,2787,Primary,Co-ed,Catholic,Systemic,Catholic (Roman),Bathurst,4101,Catholic System NSW,Non special,Primary,http://www.joeysoberon.com/,Oberon (A),Bathurst,Calare,Bathurst,Central West,Inner Regional Australia,-33.705108,149.85678
1714,1714,St Joseph's Catholic College,Russell Drysdale St,Gosford East,2250,Secondary,Female,Catholic,Systemic,Catholic (Roman),Broken Bay,4101,Catholic System NSW,Non special,Secondary,http://www.sjccdbb.catholic.edu.au,Gosford (C),Gosford,Robertson,Gosford,Central Coast,Major Cities of Australia,-33.436858,151.346876
1717,1717,Holy Spirit Infants School,Church Street,Abermain,2326,Primary,Co-ed,Catholic,Systemic,Catholic (Roman),Maitland,4101,Catholic System NSW,Non special,Primary,http://www.abermain.catholic.edu.au,Cessnock (C),Cessnock,Paterson,Lower Hunter,Hunter Valley exc Newcastle,Major Cities of Australia,-32.81091,151.443237
1721,1721,St Joseph's Primary School,Adam St,Coraki,2471,Primary,Co-ed,Catholic,Systemic,Catholic (Roman),Lismore,4101,Catholic System NSW,Non special,Primary,http://www.crkilism.catholic.edu.au,Richmond Valley (A),Clarence,Page,Richmond Valley - Hinterland,Richmond - Tweed,Inner Regional Australia,-28.989312,153.286072
1722,1722,St Joseph's Catholic School,Pye St,Eugowra,2806,Primary,Co-ed,Catholic,Systemic,Catholic (Roman),Bathurst,4101,Catholic System NSW,Non special,Primary,http://www.stjosephseugowra.catholic.edu.au/,Cabonne (A),Orange,Calare,Lachlan Valley,Central West,Outer Regional Australia,-33.428149,148.373779
1723,1723,St Joseph's Primary School,Coree Street,Finley,2713,Primary,Co-ed,Catholic,Systemic,Catholic (Roman),Wagga Wagga,4101,Catholic System NSW,Non special,Primary,http://www.sjfww.catholic.edu.au,Berrigan (A),Murray,Farrer,Upper Murray exc. Albury,Murray,Inner Regional Australia,-35.637614,145.577308
1724,1724,St Joseph's Primary School,53 Denison Street,Gloucester,2422,Primary,Co-ed,Catholic,Systemic,Catholic (Roman),Maitland,4101,Catholic System NSW,Non special,Primary,gloucester.catholic.edu.au,Gloucester (A),Upper Hunter,Lyne,Taree - Gloucester,Mid North Coast,Inner Regional Australia,-32.00817,151.961621
1725,1725,St Joseph's Primary School,18 Ash Street,Leeton,2705,Primary,Co-ed,Catholic,Systemic,Catholic (Roman),Wagga Wagga,4101,Catholic System NSW,Non special,Primary,http://www.sjleww.catholic.edu.au,Leeton (A),Murray,Farrer,Griffith - Murrumbidgee (West),Riverina,Outer Regional Australia,-34.554931,146.404439
1726,1726,St Joseph's Primary School,166 Union Street,Merewether,2291,Primary,Co-ed,Catholic,Systemic,Catholic (Roman),Maitland,4101,Catholic System NSW,Non special,Primary,http://merewether.catholic.edu.au,Newcastle (C),Newcastle,Newcastle,Newcastle,Newcastle and Lake Macquarie,Major Cities of Australia,-32.937049,151.758934
1727,1727,St Joseph's Catholic Primary School,108 Ocean Street,Narrabeen,2101,Primary,Co-ed,Catholic,Systemic,Catholic (Roman),Broken Bay,4101,Catholic System NSW,Non special,Primary,http://www.sjndbb.catholic.edu.au,Warringah (A),Pittwater,Mackellar,Warringah,Sydney - Northern Beaches,Major Cities of Australia,-33.713045,151.300014
1729,1729,St Joseph's School,Williewa Street,Portland,2847,Primary,Co-ed,Catholic,Systemic,Catholic (Roman),Bathurst,4101,Catholic System NSW,Non special,Primary,http://www.stjosephsportland.catholic.edu.au/,Lithgow (C),Bathurst,Calare,Lithgow - Mudgee,Central West,Inner Regional Australia,-33.353244,149.988335
1730,1730,St Joseph's Primary School,Warlters Street,Port Macquarie,2444,Primary,Co-ed,Catholic,Systemic,Catholic (Roman),Lismore,4101,Catholic System NSW,Non special,Primary,http://www.pmacjlism.catholic.edu.au,Port Macquarie-Hastings (A),Port Macquarie,Cowper,Port Macquarie,Mid North Coast,Inner Regional Australia,-31.429358,152.894868
1731,1731,St Joseph's Catholic Primary School,Watkin Street,Rockdale,2216,Primary,Co-ed,Catholic,Systemic,Catholic (Roman),Sydney,4101,Catholic System NSW,Non special,Primary,http://stjrockdale.catholic.edu.au,Rockdale (C),Rockdale,Barton,Kogarah - Rockdale,Sydney - Inner South West,Major Cities of Australia,-33.951347,151.135236
1733,1733,St Joseph's Primary School,1 St Joseph's Drive,Taree,2430,Primary,Co-ed,Catholic,Systemic,Catholic (Roman),Maitland,4101,Catholic System NSW,Non special,Primary,http://tareesj.catholic.edu.au,Greater Taree (C),Myall Lakes,Lyne,Taree - Gloucester,Mid North Coast,Inner Regional Australia,-31.912498,152.456446
1734,1734,St Joseph's Primary School,20 Coraki Rd,Woodburn,2472,Primary,Co-ed,Catholic,Systemic,Catholic (Roman),Lismore,4101,Catholic System NSW,Non special,Primary,http://www.wdbplism.catholic.edu.au,Richmond Valley (A),Clarence,Page,Richmond Valley - Coastal,Richmond - Tweed,Inner Regional Australia,-29.072576,153.33785
1735,1735,St Joseph's Primary School,Adelaide Street,Blayney,2799,Primary,Co-ed,Catholic,Systemic,Catholic (Roman),Bathurst,4101,Catholic System NSW,Non special,Primary,http://www.stjosephsblayney.nsw.edu.au,Blayney (A),Bathurst,Calare,Orange,Central West,Inner Regional Australia,-33.524941,149.257227
1737,1737,St Joseph's High School,Segenhoe Street,Aberdeen,2336,Secondary,Co-ed,Catholic,Systemic,Catholic (Roman),Maitland,4101,Catholic System NSW,Non special,Secondary,http://www.aberdeen.catholic.edu.au,Upper Hunter Shire (A),Upper Hunter,New England,Upper Hunter,Hunter Valley exc Newcastle,Inner Regional Australia,-32.167615,150.887984
1738,1738,St Joseph's School,21-35 Gundagai Street,Adelong,2729,Primary,Co-ed,Catholic,Systemic,Catholic (Roman),Canberra-Goulbu,4101,Catholic System NSW,Non special,Primary,http://www.sjadelong.nsw.edu.au,Tumut Shire (A),Wagga Wagga,Eden-Monaro,Tumut - Tumbarumba,Riverina,Inner Regional Australia,-35.313492,148.06687
1739,1739,St Joseph's Primary School,11 Perry Street,Alstonville,2477,Primary,Co-ed,Catholic,Systemic,Catholic (Roman),Lismore,4101,Catholic System NSW,Non special,Primary,http://www.alstplism.catholic.edu.au,Ballina (A),Ballina,Page,Richmond Valley - Coastal,Richmond - Tweed,Inner Regional Australia,-28.838298,153.437713
1743,1743,St Joseph's School,60 Fitzroy St,Barraba,2347,Primary,Co-ed,Catholic,Systemic,Catholic (Roman),Armidale,4101,Catholic System NSW,Non special,Primary,http://www.arm.catholic.edu.au/schools/barraba,Tamworth Regional (A),Tamworth,New England,Tamworth - Gunnedah,New England and North West,Outer Regional Australia,-30.377122,150.608957
1744,1744,St Bernard's Primary School  Batemans Bay,David Street,Batehaven,2536,Primary,Co-ed,Catholic,Systemic,Catholic (Roman),Canberra-Goulbu,4101,Catholic System NSW,Non special,Primary,http://www.stbernardsbb.nsw.edu.au,Eurobodalla (A),Bega,Gilmore,South Coast,Capital Region,Inner Regional Australia,-35.739114,150.205622
1745,1745,St Francis Xavier's Primary School,Ernest Street,Belmont,2280,Primary,Co-ed,Catholic,Systemic,Catholic (Roman),Maitland,4101,Catholic System NSW,Non special,Primary,http://www.belmont.catholic.edu.au,Lake Macquarie (C),Swansea,Shortland,Lake Macquarie - East,Newcastle and Lake Macquarie,Major Cities of Australia,-33.037763,151.661659
1746,1746,St Joseph's Catholic Primary School,8 Wilson Ave,Belmore,2192,Primary,Co-ed,Catholic,Systemic,Catholic (Roman),Sydney,4101,Catholic System NSW,Non special,Primary,https://sites.google.com/a/syd.catholic.edu.au/stjbelmore/,Canterbury (C),Canterbury,Watson,Canterbury,Sydney - Inner South West,Major Cities of Australia,-33.923892,151.089192
1748,1748,St Joseph's School,29 Queen Street,Bombala,2632,Primary,Co-ed,Catholic,Systemic,Catholic (Roman),Canberra-Goulbu,4101,Catholic System NSW,Non special,Primary,http://www.stjbombala.nsw.edu.au,Bombala (A),Monaro,Eden-Monaro,Snowy Mountains,Capital Region,Outer Regional Australia,-36.906441,149.2359
1749,1749,St Joseph's School,Scott St,Boorowa,2586,Primary,Co-ed,Catholic,Systemic,Catholic (Roman),Canberra-Goulbu,4101,Catholic System NSW,Non special,Primary,http://www.stjboorowa.nsw.edu.au,Boorowa (A),Goulburn,Hume,Goulburn - Yass,Capital Region,Inner Regional Australia,-34.438553,148.712939
1750,1750,St Joseph's Primary School,26C Bulahdelah Way,Bulahdelah,2423,Primary,Co-ed,Catholic,Systemic,Catholic (Roman),Maitland,4101,Catholic System NSW,Non special,Primary,http://bulahdelah.catholic.edu.au,Great Lakes (A),Myall Lakes,Lyne,Great Lakes,Mid North Coast,Inner Regional Australia,-32.404873,152.213469
1751,1751,St Joseph's Catholic Primary School,50 Park Road,Bulli,2516,Primary,Co-ed,Catholic,Systemic,Catholic (Roman),Wollongong,4101,Catholic System NSW,Non special,Primary,http://www.sjbdow.catholic.edu.au,Wollongong (C),Keira,Cunningham,Wollongong,Illawarra,Major Cities of Australia,-34.334055,150.918223
1754,1754,St Kevin's Primary School,228 Main Rd,Cardiff,2285,Primary,Co-ed,Catholic,Systemic,Catholic (Roman),Maitland,4101,Catholic System NSW,Non special,Primary,http://cardiff.catholic.edu.au,Lake Macquarie (C),Charlestown,Shortland,Lake Macquarie - East,Newcastle and Lake Macquarie,Major Cities of Australia,-32.942795,151.665665
1755,1755,St Joseph's Primary School,Shelton Street,Charlestown,2290,Primary,Co-ed,Catholic,Systemic,Catholic (Roman),Maitland,4101,Catholic System NSW,Non special,Primary,http://charlestown.catholic.edu.au,Lake Macquarie (C),Charlestown,Shortland,Lake Macquarie - East,Newcastle and Lake Macquarie,Major Cities of Australia,-32.966894,151.702628
1756,1756,St Joseph's Catholic Primary School Como - Oyster Bay,Oyster Bay Road,Como,2226,Primary,Co-ed,Catholic,Systemic,Catholic (Roman),Sydney,4101,Catholic System NSW,Non special,Primary,http://stjcomo.catholic.edu.au,Sutherland Shire (A),Miranda,Hughes,Sutherland - Menai - Heathcote,Sydney - Sutherland,Major Cities of Australia,-34.00927,151.073429
1757,1757,St Joseph's Primary School,279 William Street,Condobolin,2877,Primary,Co-ed,Catholic,Systemic,Catholic (Roman),Wilcannia-Forbe,4101,Catholic System NSW,Non special,Primary,http://www.condobolin.catholic.edu.au,Lachlan (A),Barwon,Parkes,Lachlan Valley,Central West,Outer Regional Australia,-33.084592,147.146801
1758,1758,St Joseph's Primary School,8 Blair St,Culcairn,2660,Primary,Co-ed,Catholic,Systemic,Catholic (Roman),Wagga Wagga,4101,Catholic System NSW,Non special,Primary,http://www.sjcuww.catholic.edu.au,Greater Hume Shire (A),Albury,Farrer,Albury,Murray,Inner Regional Australia,-35.668659,147.035821
1760,1760,St Joseph's Primary School,49 Brown Street,Dungog,2420,Primary,Co-ed,Catholic,Systemic,Catholic (Roman),Maitland,4101,Catholic System NSW,Non special,Primary,http://dungog.catholic.edu.au,Dungog (A),Upper Hunter,Lyne,Lower Hunter,Hunter Valley exc Newcastle,Inner Regional Australia,-32.400729,151.754143
1762,1762,St Joseph's Catholic Primary School,126 Liverpool Road,Enfield,2136,Primary,Co-ed,Catholic,Systemic,Catholic (Roman),Sydney,4101,Catholic System NSW,Non special,Primary,http://stjenfield.catholic.edu.au,Burwood (A),Strathfield,Watson,Strathfield - Burwood - Ashfield,Sydney - Inner West,Major Cities of Australia,-33.88806,151.10129
1763,1763,St Joseph's School,20 Wrigley Street,Gilgandra,2827,Primary,Co-ed,Catholic,Systemic,Catholic (Roman),Bathurst,4101,Catholic System NSW,Non special,Primary,http://www.stjosephsgilgandra.nsw.edu.au/index.php?p=1_4,Gilgandra (A),Barwon,Parkes,Dubbo,Far West and Orana,Outer Regional Australia,-31.708488,148.663239
1764,1764,St Joseph's Primary School,Hyde Street,Grafton South,2460,Primary,Co-ed,Catholic,Systemic,Catholic (Roman),Lismore,4101,Catholic System NSW,Non special,Primary,http://www.sgrafplism.catholic.edu.au,Clarence Valley (A),Clarence,Page,Clarence Valley,Coffs Harbour - Grafton,Inner Regional Australia,-29.725385,152.933617
1765,1765,St Joseph's School,Weddin Street,Grenfell,2810,Primary,Co-ed,Catholic,Systemic,Catholic (Roman),Canberra-Goulbu,4101,Catholic System NSW,Non special,Primary,http://www.stjosephsgrenfell.nsw.edu.au,Weddin (A),Cootamundra,Riverina,Lachlan Valley,Central West,Outer Regional Australia,-33.898153,148.162516
1767,1767,St Joseph's Primary School,Aiden Street,Hillston,2675,Primary,Co-ed,Catholic,Systemic,Catholic (Roman),Wilcannia-Forbe,4101,Catholic System NSW,Non special,Primary,http://www.hillston.catholic.edu.au,Carrathool (A),Murray,Farrer,Griffith - Murrumbidgee (West),Riverina,Remote Australia,-33.484283,145.528149
1768,1768,St Joseph's Primary School,Kitchener Street,Junee,2663,Primary,Co-ed,Catholic,Systemic,Catholic (Roman),Wagga Wagga,4101,Catholic System NSW,Non special,Primary,http://www.sjjuww.catholic.edu.au,Junee (A),Cootamundra,Riverina,Wagga Wagga,Riverina,Inner Regional Australia,-34.87224,147.577395
1769,1769,St Joseph's Primary School,94 Joseph Street,Kingswood,2747,Primary,Co-ed,Catholic,Systemic,Catholic (Roman),Parramatta,4101,Catholic System NSW,Non special,Primary,http://www.stjosephskingswood.catholic.edu.au,Penrith (C),Penrith,Lindsay,Penrith,Sydney - Outer West and Blue Mountains,Major Cities of Australia,-33.756798,150.721502
1770,1770,Holy Spirit Primary School,Barton Street,Kurri Kurri,2327,Primary,Co-ed,Catholic,Systemic,Catholic (Roman),Maitland,4101,Catholic System NSW,Non special,Primary,http://kurri.catholic.edu.au,Cessnock (C),Cessnock,Paterson,Lower Hunter,Hunter Valley exc Newcastle,Major Cities of Australia,-32.818582,151.484671
1771,1771,St Joseph's Primary School,Ferrier Street,Lockhart,2656,Primary,Co-ed,Catholic,Systemic,Catholic (Roman),Wagga Wagga,4101,Catholic System NSW,Non special,Primary,http://www.sjloww.catholic.edu.au,Lockhart (A),Wagga Wagga,Riverina,Wagga Wagga,Riverina,Outer Regional Australia,-35.220472,146.718077
1772,1772,St Joseph's Primary School,23 Stanley Street,Maclean,2463,Primary,Co-ed,Catholic,Systemic,Catholic (Roman),Lismore,4101,Catholic System NSW,Non special,Primary,http://www.maclplism.catholic.edu.au,Clarence Valley (A),Clarence,Page,Clarence Valley,Coffs Harbour - Grafton,Inner Regional Australia,-29.459346,153.202276
1773,1773,St Joseph's Primary School,57 King Street,East Maitland,2323,Primary,Co-ed,Catholic,Systemic,Catholic (Roman),Maitland,4101,Catholic System NSW,Non special,Primary,http://eastmaitland.catholic.edu.au,Maitland (C),Maitland,Paterson,Maitland,Hunter Valley exc Newcastle,Major Cities of Australia,-32.750531,151.58513
1774,1774,St Joseph's School,Loftus Street,Manildra,2865,Primary,Co-ed,Catholic,Systemic,Catholic (Roman),Bathurst,4101,Catholic System NSW,Non special,Primary,http://www.stjosephsmanildra.bth.catholic.edu.au,Cabonne (A),Orange,Calare,Orange,Central West,Outer Regional Australia,-33.184217,148.694661
1776,1776,St Joseph's Primary School,Marquet Street,Merriwa,2329,Primary,Co-ed,Catholic,Systemic,Catholic (Roman),Maitland,4101,Catholic System NSW,Non special,Primary,http://merriwa.catholic.edu.au,Upper Hunter Shire (A),Upper Hunter,New England,Upper Hunter,Hunter Valley exc Newcastle,Outer Regional Australia,-32.136813,150.358488
1777,1777,St Joseph's School,Edward Street,Molong,2866,Primary,Co-ed,Catholic,Systemic,Catholic (Roman),Bathurst,4101,Catholic System NSW,Non special,Primary,http://www.ceo.bathurst.catholic.edu.au/images/Reports/st%20josephs%20molong%20annualschoolrpt%202007a.pdf,Cabonne (A),Orange,Calare,Orange,Central West,Inner Regional Australia,-33.094281,148.864531
